[{"lat":"48.865247","lon":"2.3330531","name":"Pyramides","address":"15 rue des Pyramides","city":"Paris","id":0},{"lat":"48.865847","lon":"2.353606","name":"Saint-Martin","address":"252 bis rue Saint-Martin","city":"Paris","id":1},{"lat":"48.8563987","lon":"2.3536857","name":"Lobau","address":"4 Rue Lobau","city":"Paris","id":2},{"lat":"48.8535815","lon":"2.3489147","name":"Notre-Dame","address":"1 place du parvis Notre-Dame","city":"Paris","id":3},{"lat":"48.8451283","lon":"2.3252355","name":"Rennes Montparnasse","address":"155 bis rue de Rennes","city":"Paris","id":4},{"lat":"48.8540453","lon":"2.3308464","name":"Saint-Germain des Pr\u00e9s","address":"171 boulevard Saint-Germain","city":"Paris","id":5},{"lat":"48.8511944","lon":"2.3250288","name":"S\u00e8vres Babylone","address":"1 rue Velpeau","city":"Paris","id":6},{"lat":"48.85436","lon":"2.3048","name":"Joffre Ecole Militaire","address":"2 place Joffre","city":"Paris","id":7},{"lat":"48.8671133","lon":"2.3206859","name":"Concorde","address":"2 avenue Gabriel","city":"Paris","id":8},{"lat":"48.8708166","lon":"2.3238024","name":"Madeleine Tronchet","address":"19 place de la Madeleine","city":"Paris","id":9},{"lat":"48.8828226","lon":"2.3445195","name":"Anvers","address":"41 boulevard de Rochechouart","city":"Paris","id":10},{"lat":"48.8465494","lon":"2.399841","name":"Picpus Nation","address":"65 boulevard de Picpus","city":"Paris","id":11},{"lat":"48.8394311","lon":"2.3711076","name":"Quai d'Austerlitz","address":"29 quai Austerlitz","city":"Paris","id":12},{"lat":"48.8351586","lon":"2.3730473","name":"Vincent Auriol","address":"21 Rue Abel Gance","city":"Paris","id":13},{"lat":"48.8389","lon":"2.3202","name":"Montparnasse Ga\u00eet\u00e9","address":"15 rue du Commandant Ren\u00e9 Mouchotte","city":"Paris","id":14},{"lat":"48.8418362","lon":"2.3297916","name":"Montparnasse Raspail","address":"120 boulevard du Montparnasse","city":"Paris","id":15},{"lat":"48.83363","lon":"2.334188","name":"Saint-Jacques 1","address":"61 boulevard Saint-Jacques","city":"Paris","id":16},{"lat":"48.8525731","lon":"2.2910359","name":"Grenelle 1","address":"31 boulevard de Grenelle","city":"Paris","id":17},{"lat":"48.8408742","lon":"2.3149828","name":"Pasteur 2","address":"69 boulevard Pasteur","city":"Paris","id":18},{"lat":"48.8397806","lon":"2.3124999","name":"Pasteur Montparnasse","address":"81 rue Falgui\u00e8re","city":"Paris","id":19},{"lat":"48.8416996","lon":"2.2996144","name":"Lecourbe Mairie du XV\u00e8me","address":"141 rue Lecourbe","city":"Paris","id":20},{"lat":"48.8393383","lon":"2.2756878","name":"Citro\u00ebn C\u00e9vennes","address":"37 rue Leblanc","city":"Paris","id":21},{"lat":"48.8478016","lon":"2.3027721","name":"Garibaldi Cambronne","address":"1 boulevard Garibaldi","city":"Paris","id":22},{"lat":"48.8455506","lon":"2.3012843","name":"Cambronne","address":"26 villa Croix-Nivert","city":"Paris","id":23},{"lat":"48.87368","lon":"2.291597","name":"Etoile Foch","address":"6 avenue Foch","city":"Paris","id":24},{"lat":"48.84665","lon":"2.256168","name":"Porte d'Auteuil","address":"1 avenue du G\u00e9n\u00e9ral Sarrail","city":"Paris","id":25},{"lat":"48.8396733","lon":"2.2628916","name":"Versailles Reynaud","address":"178 avenue de Versailles","city":"Paris","id":26},{"lat":"48.8902262","lon":"2.3171818","name":"Cardinet","address":"168 bis rue Cardinet","city":"Paris","id":27},{"lat":"48.8789949","lon":"2.2934366","name":"Ternes","address":"38 avenue des Ternes","city":"Paris","id":28},{"lat":"48.8834652","lon":"2.2880891","name":"Gouvion Maillot","address":"26 boulevard Gouvion Saint-Cyr","city":"Paris","id":29},{"lat":"48.89324","lon":"2.288878","name":"H\u00f4tel de Ville","address":"1 Place de la R\u00e9publique","city":"Levallois-Perret","id":30},{"lat":"48.8944531","lon":"2.2883803","name":"Wilson-Planchette","address":"80 bis rue du pr\u00e9sident Wilson","city":"Levallois-Perret","id":31},{"lat":"48.8987082","lon":"2.2813485","name":"Pompidou","address":"1 Place Georges Pompidou","city":"Levallois-Perret","id":32},{"lat":"48.8970781","lon":"2.2761987","name":"Andr\u00e9 Citro\u00ebn","address":"33 rue Ernest Cognacq","city":"Levallois-Perret","id":33},{"lat":"48.8953575","lon":"2.2922568","name":"Marjolin","address":"21 rue Pierre Brossolette","city":"Levallois-Perret","id":34},{"lat":"48.8913559","lon":"2.291001","name":"Wilson-Barbusse","address":"37 rue du Pr\u00e9sident Wilson","city":"Levallois-Perret","id":35},{"lat":"48.8873092","lon":"2.2844274","name":"Louise Michel","address":"8 rue Louise Michel","city":"Levallois-Perret","id":36},{"lat":"48.89313","lon":"2.298737","name":"So'Ouest","address":"29 rue d'Alsace","city":"Levallois-Perret","id":37},{"lat":"48.8822059","lon":"2.2776214","name":"Parmentier","address":"57 avenue du Roule","city":"Neuilly-sur-Seine","id":38},{"lat":"48.75243","lon":"2.361671","name":"Sogaris","address":"1 place de la Logistique","city":"Rungis","id":39},{"lat":"48.814875","lon":"2.4592711","name":"Montgolfier","address":"Place Montgolfier - Parking Montgolfier","city":"Saint-Maurice","id":40},{"lat":"48.8640888","lon":"2.3437342","name":"Jean-Jacques Rousseau","address":"62 rue Jean-Jacques Rousseau","city":"Paris","id":41},{"lat":"48.8642939","lon":"2.3314856","name":"Saint Roch","address":"3 Rue Saint Roch","city":"Paris","id":42},{"lat":"48.8648594","lon":"2.3329713","name":"Pyramides","address":"12 Rue des Pyramides","city":"Paris","id":43},{"lat":"48.85971","lon":"2.34024","name":"Amiral Coligny","address":"2 Rue de l'Amiral Coligny","city":"Paris","id":44},{"lat":"48.8624631","lon":"2.3393006","name":"Croix des Petits Champs","address":"4 Rue Croix des Petits Champs","city":"Paris","id":45},{"lat":"48.857882","lon":"2.346828","name":"Victoria","address":"17 Avenue Victoria","city":"Paris","id":46},{"lat":"48.8633915","lon":"2.3403966","name":"Colonel Driant","address":"7 rue du Colonel Driant","city":"Paris","id":47},{"lat":"48.8589371","lon":"2.347433","name":"Halles","address":"3 Rue des Halles","city":"Paris","id":48},{"lat":"48.8588109","lon":"2.3449501","name":"Bertin Poir\u00e9e","address":"14 rue Bertin Poir\u00e9e","city":"Paris","id":49},{"lat":"48.8680082","lon":"2.3508835","name":"Alexandrie","address":"7 rue d'Alexandrie","city":"Paris","id":50},{"lat":"48.869353","lon":"2.3382066","name":"Quatre septembre","address":"10 rue du Quatre septembre","city":"Paris","id":51},{"lat":"48.8705626","lon":"2.3408933","name":"Vivienne","address":"43 rue Vivienne","city":"Paris","id":52},{"lat":"48.8696994","lon":"2.3423247","name":"Notre-Dame des Victoires","address":"21 bis rue Notre-Dame des Victoires","city":"Paris","id":53},{"lat":"48.8703","lon":"2.349722","name":"Bonne Nouvelle","address":"21 boulevard Bonne Nouvelle","city":"Paris","id":54},{"lat":"48.8700633","lon":"2.3340228","name":"Quatre Septembre","address":"26 Rue du Quatre Septembre","city":"Paris","id":55},{"lat":"48.86502","lon":"2.344388","name":"\u00c9tienne Marcel","address":"36 Rue \u00c9tienne Marcel","city":"Paris","id":56},{"lat":"48.8699261","lon":"2.3320835","name":"Paix","address":"24 rue de la Paix","city":"Paris","id":57},{"lat":"48.8704209","lon":"2.3454538","name":"Uz\u00e8s","address":"1 rue d'Uz\u00e8s","city":"Paris","id":58},{"lat":"48.868181","lon":"2.335097","name":"Dalayrac","address":"19 rue Dalayrac","city":"Paris","id":59},{"lat":"48.86781","lon":"2.34525","name":"R\u00e9aumur","address":"116 rue R\u00e9aumur","city":"Paris","id":60},{"lat":"48.8660947","lon":"2.3433342","name":"Louvre","address":"31 rue du Louvre","city":"Paris","id":61},{"lat":"48.8580079","lon":"2.3644786","name":"Turenne","address":"46 rue de Turenne","city":"Paris","id":62},{"lat":"48.865753","lon":"2.3533572","name":"Saint Martin","address":"243 rue Saint Martin","city":"Paris","id":63},{"lat":"48.8674504","lon":"2.3630074","name":"R\u00e9publique","address":"17 Place de la R\u00e9publique","city":"Paris","id":64},{"lat":"48.8653769","lon":"2.3573678","name":"R\u00e9aumur","address":"38 Rue R\u00e9aumur","city":"Paris","id":65},{"lat":"48.86502","lon":"2.360503","name":"Perr\u00e9e","address":"18 Rue Perr\u00e9e","city":"Paris","id":66},{"lat":"48.8665042","lon":"2.3578808","name":"Volta","address":"39 Rue Volta","city":"Paris","id":67},{"lat":"48.8597916","lon":"2.3613291","name":"Perle","address":"18 Rue de la Perle","city":"Paris","id":68},{"lat":"48.8628","lon":"2.3660304","name":"Filles du Calvaire","address":"19 Rue des Filles du Calvaire","city":"Paris","id":69},{"lat":"48.862833","lon":"2.3593315","name":"Pastourelle","address":"27 rue Pastourelle","city":"Paris","id":70},{"lat":"48.8635527","lon":"2.3612023","name":"Bretagne","address":"51 Rue de Bretagne","city":"Paris","id":71},{"lat":"48.8681421","lon":"2.360276","name":"Saint-Martin","address":"17 boulevard Saint-Martin","city":"Paris","id":72},{"lat":"48.8633367","lon":"2.3526978","name":"Saint-Martin","address":"204 rue Saint-Martin","city":"Paris","id":73},{"lat":"48.8589682","lon":"2.3673798","name":"Beaumarchais","address":"87 boulevard Beaumarchais","city":"Paris","id":74},{"lat":"48.8623505","lon":"2.3648513","name":"Turenne","address":"98 rue de Turenne","city":"Paris","id":75},{"lat":"48.8553672","lon":"2.3591939","name":"Fran\u00e7ois Miron","address":"80 rue Fran\u00e7ois Miron","city":"Paris","id":76},{"lat":"48.8548459","lon":"2.3505278","name":"Fleurs","address":"23 Quai aux Fleurs","city":"Paris","id":77},{"lat":"48.855842","lon":"2.354055","name":"Saint Gervais","address":"1 place Saint Gervais","city":"Paris","id":78},{"lat":"48.8596689","lon":"2.3542653","name":"Temple","address":"36 rue du Temple","city":"Paris","id":79},{"lat":"48.8585045","lon":"2.3543751","name":"Sainte-Croix de la Bretonnerie","address":"37 rue Sainte-Croix de la Bretonnerie","city":"Paris","id":80},{"lat":"48.85648","lon":"2.361378","name":"Malher","address":"13 rue Malher","city":"Paris","id":81},{"lat":"48.8557269","lon":"2.3562973","name":"Pont Louis-Philippe","address":"24 rue du Pont Louis-Philippe","city":"Paris","id":82},{"lat":"48.8504593","lon":"2.3615731","name":"Henri IV","address":"46 Quai Henri IV","city":"Paris","id":83},{"lat":"48.8512525","lon":"2.3564553","name":"B\u00e9thune","address":"36 quai de B\u00e9thune","city":"Paris","id":84},{"lat":"48.8524894","lon":"2.3678127","name":"Bourdon","address":"41 Boulevard Bourdon","city":"Paris","id":85},{"lat":"48.84925","lon":"2.362993","name":"Schomberg","address":"1 rue de Schomberg","city":"Paris","id":86},{"lat":"48.8541989","lon":"2.345341","name":"March\u00e9 Neuf","address":"8 Quai du March\u00e9 Neuf","city":"Paris","id":87},{"lat":"48.85378","lon":"2.358089","name":"Nonnains d'Hy\u00e8res","address":"1 rue des Nonnains d'Hy\u00e8res","city":"Paris","id":88},{"lat":"48.8484226","lon":"2.366004","name":"Bourdon","address":"9 boulevard Bourdon","city":"Paris","id":89},{"lat":"48.853574","lon":"2.363958","name":"Neuve Saint-Pierre","address":"2 rue Neuve Saint-Pierre","city":"Paris","id":90},{"lat":"48.8403227","lon":"2.3562719","name":"Geoffroy-Saint-Hilaire","address":"27 rue Geoffroy-Saint-Hilaire","city":"Paris","id":91},{"lat":"48.8513879","lon":"2.3472476","name":"Dante","address":"1 Rue Dante","city":"Paris","id":92},{"lat":"48.850032","lon":"2.3544309","name":"Tournelle","address":"21 Quai de la Tournelle","city":"Paris","id":93},{"lat":"48.8469","lon":"2.343399","name":"Saint Jacques","address":"133 rue Saint Jacques","city":"Paris","id":94},{"lat":"48.8499024","lon":"2.3444286","name":"Paul Painlev\u00e9","address":"7 rue Paul Painlev\u00e9","city":"Paris","id":95},{"lat":"48.8420054","lon":"2.3430684","name":"Gay-Lussac","address":"66 rue Gay-Lussac","city":"Paris","id":96},{"lat":"48.84934","lon":"2.350152","name":"Bernardins","address":"23 rue des Bernardins","city":"Paris","id":97},{"lat":"48.84196","lon":"2.347262","name":"Pierre Brossolette","address":"1 rue Pierre Brossolette","city":"Paris","id":98},{"lat":"48.8478612","lon":"2.3509722","name":"\u00c9coles","address":"19 rue des \u00c9coles","city":"Paris","id":99},{"lat":"48.8452566","lon":"2.3548335","name":"Linn\u00e9","address":"18 rue Linn\u00e9","city":"Paris","id":100},{"lat":"48.8444276","lon":"2.3522773","name":"Monge","address":"58 Rue Monge","city":"Paris","id":101},{"lat":"48.8441945","lon":"2.3507523","name":"Lac\u00e9p\u00e8de","address":"38 Rue Lac\u00e9p\u00e8de","city":"Paris","id":102},{"lat":"48.8479993","lon":"2.3469365","name":"Valette","address":"2 bis rue Valette","city":"Paris","id":103},{"lat":"48.8438007","lon":"2.341924","name":"Saint-Jacques","address":"221 rue Saint-Jacques","city":"Paris","id":104},{"lat":"48.8463237","lon":"2.3484148","name":"Clovis","address":"20 rue Clovis","city":"Paris","id":105},{"lat":"48.8411067","lon":"2.3544235","name":"Censier","address":"14 rue Censier","city":"Paris","id":106},{"lat":"48.8410649","lon":"2.352048","name":"Monge","address":"99 Rue Monge","city":"Paris","id":107},{"lat":"48.8397733","lon":"2.3476575","name":"Claude Bernard","address":"16 rue Claude Bernard","city":"Paris","id":108},{"lat":"48.8415","lon":"2.338973","name":"Henri Barbusse","address":"25 rue Henri Barbusse","city":"Paris","id":109},{"lat":"48.8552045","lon":"2.3371078","name":"Jacques Callot","address":"5 rue Jacques Callot","city":"Paris","id":110},{"lat":"48.8516002","lon":"2.3361369","name":"Lobineau","address":"9 rue Lobineau","city":"Paris","id":111},{"lat":"48.8507628","lon":"2.3319002","name":"Madame","address":"18 rue Madame","city":"Paris","id":112},{"lat":"48.847875","lon":"2.3239783","name":"B\u00e9rite","address":"3 rue de B\u00e9rite","city":"Paris","id":113},{"lat":"48.8430076","lon":"2.3280363","name":"P\u00e9guy","address":"2 Rue P\u00e9guy","city":"Paris","id":114},{"lat":"48.8473613","lon":"2.3263246","name":"Saint Placide","address":"58 Rue Saint Placide","city":"Paris","id":115},{"lat":"48.8489613","lon":"2.3287351","name":"Rennes","address":"105 Rue de Rennes","city":"Paris","id":116},{"lat":"48.8448931","lon":"2.3292576","name":"Notre-Dame des Champs","address":"39 Rue Notre-Dame des Champs","city":"Paris","id":117},{"lat":"48.84189","lon":"2.333149","name":"Joseph Bara","address":"15 rue Joseph Bara","city":"Paris","id":118},{"lat":"48.8425631","lon":"2.3363896","name":"Michelet","address":"6 rue Michelet","city":"Paris","id":119},{"lat":"48.8425101","lon":"2.3292257","name":"Raspail","address":"136 boulevard Raspail","city":"Paris","id":120},{"lat":"48.8471079","lon":"2.3321208","name":"Fleurus","address":"2 rue de Fleurus","city":"Paris","id":121},{"lat":"48.8524509","lon":"2.3314662","name":"Four","address":"38 rue du Four","city":"Paris","id":122},{"lat":"48.85273","lon":"2.335816","name":"Montfaucon","address":"4 Rue de Montfaucon","city":"Paris","id":123},{"lat":"48.84893","lon":"2.340624","name":"Vaugirard","address":"3 rue de Vaugirard","city":"Paris","id":124},{"lat":"48.85262","lon":"2.342107","name":"Danton","address":"8 rue Danton","city":"Paris","id":125},{"lat":"48.8473691","lon":"2.3182091","name":"Mayet","address":"2 rue Mayet","city":"Paris","id":126},{"lat":"48.8618934","lon":"2.3029282","name":"Cognacq Jay","address":"20 Rue Cognacq Jay","city":"Paris","id":127},{"lat":"48.85807","lon":"2.299582","name":"Bourdonnais","address":"45 Avenue de la Bourdonnais","city":"Paris","id":128},{"lat":"48.8587263","lon":"2.314834","name":"Constantine","address":"25 rue Constantine","city":"Paris","id":129},{"lat":"48.8512827","lon":"2.3129161","name":"Mithouard","address":"6 place du Pr\u00e9sident Mithouard","city":"Paris","id":130},{"lat":"48.8553541","lon":"2.305473","name":"Bosquet","address":"81 Avenue Bosquet","city":"Paris","id":131},{"lat":"48.8530403","lon":"2.3190123","name":"Chanaleilles","address":"1 rue de Chanaleilles","city":"Paris","id":132},{"lat":"48.85806","lon":"2.310588","name":"Grenelle","address":"152 Rue de Grenelle","city":"Paris","id":133},{"lat":"48.8511276","lon":"2.3106373","name":"Duquesne","address":"26 Avenue Duquesne","city":"Paris","id":134},{"lat":"48.8580816","lon":"2.3040495","name":"Bosquet","address":"41 avenue Bosquet","city":"Paris","id":135},{"lat":"48.8482825","lon":"2.315725","name":"Duroc","address":"2 Rue Duroc","city":"Paris","id":136},{"lat":"48.85206","lon":"2.314345","name":"Invalides","address":"32 boulevard des Invalides","city":"Paris","id":137},{"lat":"48.8508194","lon":"2.3237968","name":"Bac","address":"142 rue du Bac","city":"Paris","id":138},{"lat":"48.85478","lon":"2.32588","name":"Raspail","address":"9 Boulevard Raspail","city":"Paris","id":139},{"lat":"48.8556902","lon":"2.3022442","name":"\u00c9mile Deschanel","address":"15 avenue \u00c9mile Deschanel","city":"Paris","id":140},{"lat":"48.8593659","lon":"2.3195393","name":"Martignac","address":"2 rue de Martignac","city":"Paris","id":141},{"lat":"48.8560129","lon":"2.3097645","name":"Tour-Maubourg","address":"76 Boulevard de la Tour-Maubourg","city":"Paris","id":142},{"lat":"48.856725","lon":"2.3270428","name":"Bac","address":"42 Rue du Bac","city":"Paris","id":143},{"lat":"48.8558178","lon":"2.3152447","name":"Invalides","address":"21 Boulevard des Invalides","city":"Paris","id":144},{"lat":"48.8611286","lon":"2.3069867","name":"Jean Nicot","address":"10 rue Jean Nicot","city":"Paris","id":145},{"lat":"48.8492973","lon":"2.3077697","name":"S\u00e9gur","address":"55 avenue de S\u00e9gur","city":"Paris","id":146},{"lat":"48.85461","lon":"2.329982","name":"Saint-Germain","address":"188 boulevard Saint-Germain","city":"Paris","id":147},{"lat":"48.8561697","lon":"2.3080758","name":"Ernest Psichari","address":"13 Rue Ernest Psichari","city":"Paris","id":148},{"lat":"48.8598769","lon":"2.3245048","name":"Bellechasse","address":"5 rue de Bellechasse","city":"Paris","id":149},{"lat":"48.8734765","lon":"2.3008886","name":"Chateaubriand","address":"19 rue de Chateaubriand","city":"Paris","id":150},{"lat":"48.87593","lon":"2.314194","name":"Messine","address":"12 Avenue de Messine","city":"Paris","id":151},{"lat":"48.872759","lon":"2.3080661","name":"Artois","address":"11 rue d'Artois","city":"Paris","id":152},{"lat":"48.8657733","lon":"2.3084191","name":"Francois 1er","address":"7 Rue Francois 1er","city":"Paris","id":153},{"lat":"48.8737","lon":"2.314663","name":"La Bo\u00e9tie","address":"37 rue la Bo\u00e9tie","city":"Paris","id":154},{"lat":"48.87006","lon":"2.312597","name":"Matignon","address":"2 avenue Matignon","city":"Paris","id":155},{"lat":"48.872047","lon":"2.3131252","name":"Saint-Honor\u00e9","address":"91 Rue du Faubourg Saint-Honor\u00e9","city":"Paris","id":156},{"lat":"48.87327","lon":"2.309515","name":"Saint-Honor\u00e9","address":"123 Rue du Faubourg Saint-Honor\u00e9","city":"Paris","id":157},{"lat":"48.881834","lon":"2.32056","name":"Rome","address":"73 Rue de Rome","city":"Paris","id":158},{"lat":"48.8662011","lon":"2.3156932","name":"Dutuit","address":"1 avenue Dutuit","city":"Paris","id":159},{"lat":"48.8724475","lon":"2.3041662","name":"Berri","address":"10 rue de Berri","city":"Paris","id":160},{"lat":"48.870601","lon":"2.3226488","name":"Malesherbes","address":"7 boulevard Malesherbes","city":"Paris","id":161},{"lat":"48.8746335","lon":"2.3062488","name":"Saint-Honor\u00e9","address":"161 rue du Faubourg Saint-Honor\u00e9","city":"Paris","id":162},{"lat":"48.8797479","lon":"2.3214351","name":"Constantinople","address":"4 rue de Constantinople","city":"Paris","id":163},{"lat":"48.8683003","lon":"2.3237257","name":"Saint-Honor\u00e9","address":"422 Rue Saint-Honor\u00e9","city":"Paris","id":164},{"lat":"48.8762882","lon":"2.3011232","name":"Hoche","address":"31 avenue Hoche","city":"Paris","id":165},{"lat":"48.8728324","lon":"2.3193886","name":"Astorg","address":"11 rue d'Astorg","city":"Paris","id":166},{"lat":"48.878351","lon":"2.3044935","name":"Courcelles","address":"69 Rue de Courcelles","city":"Paris","id":167},{"lat":"48.8778333","lon":"2.310832","name":"Monceau","address":"43 Rue de Monceau","city":"Paris","id":168},{"lat":"48.8800947","lon":"2.3134453","name":"Malesherbes","address":"113 boulevard Malesherbes","city":"Paris","id":169},{"lat":"48.8696448","lon":"2.3036203","name":"Pierre Charron","address":"62 rue Pierre Charron","city":"Paris","id":170},{"lat":"48.8761878","lon":"2.3082976","name":"Courcelles","address":"40 rue de Courcelles","city":"Paris","id":171},{"lat":"48.8741642","lon":"2.2976358","name":"Friedland","address":"42 avenue de Friedland","city":"Paris","id":172},{"lat":"48.875556","lon":"2.319321","name":"Saint-Augustin","address":"9 place Saint-Augustin","city":"Paris","id":173},{"lat":"48.8830163","lon":"2.325922","name":"Batignolles","address":"9 Boulevard des Batignolles","city":"Paris","id":174},{"lat":"48.8795963","lon":"2.3263307","name":"Li\u00e8ge","address":"24 rue de Li\u00e8ge","city":"Paris","id":175},{"lat":"48.87405","lon":"2.325726","name":"Haussmann","address":"61 Boulevard Haussmann","city":"Paris","id":176},{"lat":"48.87057","lon":"2.301121","name":"George V","address":"44 Avenue George V","city":"Paris","id":177},{"lat":"48.8783912","lon":"2.3225683","name":"Rome","address":"46 rue de Rome","city":"Paris","id":178},{"lat":"48.87236","lon":"2.326167","name":"Tronchet","address":"19 rue Tronchet","city":"Paris","id":179},{"lat":"48.8682112","lon":"2.3046348","name":"Fran\u00e7ois 1er","address":"38 rue Fran\u00e7ois 1er","city":"Paris","id":180},{"lat":"48.883011","lon":"2.329596","name":"Adolphe Max","address":"6 place Adolphe Max","city":"Paris","id":181},{"lat":"48.86972","lon":"2.326691","name":"Madeleine","address":"8 Boulevard de la Madeleine","city":"Paris","id":182},{"lat":"48.8774174","lon":"2.3465915","name":"Rochambeau","address":"6 rue Rochambeau","city":"Paris","id":183},{"lat":"48.8800786","lon":"2.3455235","name":"Turgot","address":"4 rue Turgot","city":"Paris","id":184},{"lat":"48.8826","lon":"2.3363","name":"Clichy","address":"23 Boulevard de Clichy","city":"Paris","id":185},{"lat":"48.874155","lon":"2.338559","name":"Provence","address":"35 Rue de Provence","city":"Paris","id":186},{"lat":"48.8804478","lon":"2.3283632","name":"Jules Lef\u00e8bvre","address":"1 rue Jules Lef\u00e8bvre","city":"Paris","id":187},{"lat":"48.8768536","lon":"2.3302084","name":"Londres","address":"6 rue de Londres","city":"Paris","id":188},{"lat":"48.8716413","lon":"2.3338862","name":"Chauss\u00e9e d'Antin","address":"5 Rue de la Chauss\u00e9e d'Antin","city":"Paris","id":189},{"lat":"48.8829733","lon":"2.3454871","name":"Rochechouart","address":"31 Boulevard Rochechouart","city":"Paris","id":190},{"lat":"48.8735894","lon":"2.3466528","name":"Conservatoire","address":"13 rue du conservatoire","city":"Paris","id":191},{"lat":"48.880936","lon":"2.341184","name":"Trudaine","address":"26 avenue Trudaine","city":"Paris","id":192},{"lat":"48.8753135","lon":"2.332521","name":"Victoire","address":"76 rue de la Victoire","city":"Paris","id":193},{"lat":"48.8808111","lon":"2.3369185","name":"Victor Mass\u00e9","address":"35 rue Victor Mass\u00e9","city":"Paris","id":194},{"lat":"48.87357","lon":"2.3348418","name":"La Fayette","address":"7 rue La Fayette","city":"Paris","id":195},{"lat":"48.875921","lon":"2.3382898","name":"Chateaudun","address":"21 Rue de Chateaudun","city":"Paris","id":196},{"lat":"48.875464","lon":"2.342083","name":"La Fayette","address":"56 Rue La Fayette","city":"Paris","id":197},{"lat":"48.8723178","lon":"2.3387762","name":"Haussmann","address":"6 Boulevard Haussmann","city":"Paris","id":198},{"lat":"48.878643","lon":"2.3347774","name":"Aumale","address":"28 rue d'Aumale","city":"Paris","id":199},{"lat":"48.8805732","lon":"2.3317546","name":"Paul Escudier","address":"2 rue Paul Escudier","city":"Paris","id":200},{"lat":"48.8738324","lon":"2.3425629","name":"Montmartre","address":"31 Bis Rue du Faubourg Montmartre","city":"Paris","id":201},{"lat":"48.8777212","lon":"2.3409177","name":"Milton","address":"12 rue Milton","city":"Paris","id":202},{"lat":"48.87484","lon":"2.36289","name":"Valmy","address":"107 Quai de Valmy","city":"Paris","id":203},{"lat":"48.88363","lon":"2.351257","name":"Guy Patin","address":"10 rue Guy Patin","city":"Paris","id":204},{"lat":"48.8801069","lon":"2.3635391","name":"Faubourg-Saint-Martin","address":"203 Rue du Faubourg-Saint-Martin","city":"Paris","id":205},{"lat":"48.8837053","lon":"2.3600404","name":"Louis Blanc","address":"67 rue Louis Blanc","city":"Paris","id":206},{"lat":"48.8791341","lon":"2.3560476","name":"La Fayette","address":"143 Rue La Fayette","city":"Paris","id":207},{"lat":"48.87565","lon":"2.372715","name":"Villette","address":"55 boulevard de la Villette","city":"Paris","id":208},{"lat":"48.8772454","lon":"2.3612521","name":"Faubourg-Saint-Martin","address":"168 Rue du Faubourg-Saint-Martin","city":"Paris","id":209},{"lat":"48.8750753","lon":"2.3523208","name":"Paradis","address":"28 Rue de Paradis","city":"Paris","id":210},{"lat":"48.87383","lon":"2.365097","name":"Grange aux Belles","address":"11 Rue de la Grange aux Belles","city":"Paris","id":211},{"lat":"48.8702567","lon":"2.3600462","name":"Pierre Chausson","address":"1 rue Pierre Chausson","city":"Paris","id":212},{"lat":"48.8750762","lon":"2.3587236","name":"Sibour","address":"2 rue Sibour","city":"Paris","id":213},{"lat":"48.8814921","lon":"2.3629571","name":"Ch\u00e2teau Landon","address":"24 rue du Ch\u00e2teau Landon","city":"Paris","id":214},{"lat":"48.8820036","lon":"2.3665874","name":"Faubourg-Saint-Martin","address":"242 Rue du Faubourg-Saint-Martin","city":"Paris","id":215},{"lat":"48.8815794","lon":"2.3528177","name":"Saint-Vincent-de-Paul","address":"26 rue Saint-Vincent-de-Paul","city":"Paris","id":216},{"lat":"48.87893","lon":"2.36908","name":"Louis Blanc","address":"6 Rue Louis Blanc","city":"Paris","id":217},{"lat":"48.8740623","lon":"2.3703034","name":"Claude Vellefaux","address":"3 avenue Claude Vellefaux","city":"Paris","id":218},{"lat":"48.87119","lon":"2.364206","name":"Beaurepaire","address":"31 rue Beaurepaire","city":"Paris","id":219},{"lat":"48.87081","lon":"2.354076","name":"Metz","address":"6 Rue de Metz","city":"Paris","id":220},{"lat":"48.87569","lon":"2.36801","name":"Grange aux Belles","address":"47 rue de la Grange aux Belles","city":"Paris","id":221},{"lat":"48.8836044","lon":"2.3643056","name":"Ch\u00e2teau Landon","address":"52 rue de Ch\u00e2teau Landon","city":"Paris","id":222},{"lat":"48.8801236","lon":"2.3509617","name":"Rocroy","address":"15 rue de Rocroy","city":"Paris","id":223},{"lat":"48.87237","lon":"2.366288","name":"Richerand","address":"11 Avenue Richerand","city":"Paris","id":224},{"lat":"48.8740698","lon":"2.3551424","name":"Saint-Denis","address":"91 rue du Faubourg Saint-Denis","city":"Paris","id":225},{"lat":"48.87517","lon":"2.348162","name":"Poissonni\u00e8re","address":"64 rue du Faubourg Poissonni\u00e8re","city":"Paris","id":226},{"lat":"48.87179","lon":"2.372482","name":"Buisson Saint Louis","address":"2 Rue du Buisson Saint Louis","city":"Paris","id":227},{"lat":"48.8545026","lon":"2.370183","name":"Richard Lenoir","address":"8 Boulevard Richard Lenoir","city":"Paris","id":228},{"lat":"48.8584385","lon":"2.3800903","name":"Parmentier","address":"2 avenue Parmentier","city":"Paris","id":229},{"lat":"48.8493744","lon":"2.395332","name":"Philippe Auguste","address":"1 avenue Philippe Auguste","city":"Paris","id":230},{"lat":"48.85189","lon":"2.376434","name":"Ledru Rollin","address":"104 avenue Ledru Rollin","city":"Paris","id":231},{"lat":"48.8657658","lon":"2.3664376","name":"Voltaire","address":"8 Boulevard Voltaire","city":"Paris","id":232},{"lat":"48.8548","lon":"2.385047","name":"Voltaire","address":"182 Boulevard Voltaire","city":"Paris","id":233},{"lat":"48.8505136","lon":"2.3823163","name":"Saint-Antoine","address":"199 Rue du Faubourg Saint-Antoine","city":"Paris","id":234},{"lat":"48.8586443","lon":"2.3841089","name":"Roquette","address":"162 rue de la Roquette","city":"Paris","id":235},{"lat":"48.852023","lon":"2.389719","name":"Voltaire","address":"236 Boulevard Voltaire","city":"Paris","id":236},{"lat":"48.8690795","lon":"2.371679","name":"Parmentier","address":"125 bis avenue Parmentier","city":"Paris","id":237},{"lat":"48.8533715","lon":"2.3882044","name":"L\u00e9on Frot","address":"1 rue L\u00e9on Frot","city":"Paris","id":238},{"lat":"48.8619069","lon":"2.3735705","name":"Voltaire","address":"59 Boulevard Voltaire","city":"Paris","id":239},{"lat":"48.8553267","lon":"2.3783382","name":"Ledru Rollin","address":"155 Avenue Ledru Rollin","city":"Paris","id":240},{"lat":"48.8611413","lon":"2.3781941","name":"Renault","address":"2 rue du G\u00e9n\u00e9ral Renault","city":"Paris","id":241},{"lat":"48.8656694","lon":"2.3721102","name":"R\u00e9publique","address":"36 avenue de la R\u00e9publique","city":"Paris","id":242},{"lat":"48.8641096","lon":"2.3799691","name":"R\u00e9publique","address":"86 avenue de la R\u00e9publique","city":"Paris","id":243},{"lat":"48.8629398","lon":"2.386178","name":"R\u00e9publique","address":"128 avenue de la R\u00e9publique","city":"Paris","id":244},{"lat":"48.86661","lon":"2.36784","name":"R\u00e9publique","address":"5 avenue de la R\u00e9publique","city":"Paris","id":245},{"lat":"48.8686522","lon":"2.374656","name":"Saint-Maur","address":"157 rue Saint-Maur","city":"Paris","id":246},{"lat":"48.857259","lon":"2.37139","name":"Richard Lenoir","address":"36 Boulevard Richard Lenoir","city":"Paris","id":247},{"lat":"48.8499672","lon":"2.387246","name":"Roubo","address":"1 rue Roubo","city":"Paris","id":248},{"lat":"48.8577957","lon":"2.390264","name":"Philippe Auguste","address":"126 Avenue Philippe Auguste","city":"Paris","id":249},{"lat":"48.853661","lon":"2.3923486","name":"Philippe Auguste","address":"65 avenue Philippe Auguste","city":"Paris","id":250},{"lat":"48.84948","lon":"2.397761","name":"Taillebourg","address":"2 Avenue de Taillebourg","city":"Paris","id":251},{"lat":"48.8525733","lon":"2.3830368","name":"Faidherbe","address":"27 Rue Faidherbe","city":"Paris","id":252},{"lat":"48.8561529","lon":"2.3825248","name":"Fran\u00e7ois de Neufchateau","address":"11 rue Fran\u00e7ois de Neufchateau","city":"Paris","id":253},{"lat":"48.8592806","lon":"2.3773563","name":"Voltaire","address":"106 Boulevard Voltaire","city":"Paris","id":254},{"lat":"48.86023","lon":"2.3719914","name":"Richard Lenoir","address":"63 Boulevard Richard Lenoir","city":"Paris","id":255},{"lat":"48.8640621","lon":"2.3713985","name":"Richard Lenoir","address":"110 Boulevard Richard Lenoir","city":"Paris","id":256},{"lat":"48.85579","lon":"2.374203","name":"Commandant Lamy","address":"2 rue du Commandant Lamy","city":"Paris","id":257},{"lat":"48.8615346","lon":"2.3809277","name":"Saint-Maur","address":"36 rue Saint-Maur","city":"Paris","id":258},{"lat":"48.862875","lon":"2.3765261","name":"Parmentier","address":"62 Avenue Parmentier","city":"Paris","id":259},{"lat":"48.8526773","lon":"2.3710901","name":"Saint-Antoine","address":"16 Rue du Faubourg Saint-Antoine","city":"Paris","id":260},{"lat":"48.8506483","lon":"2.3754501","name":"Ledru-Rollin","address":"88 Avenue Ledru-Rollin","city":"Paris","id":261},{"lat":"48.8515769","lon":"2.369445","name":"Bastille","address":"50 boulevard de la Bastille","city":"Paris","id":262},{"lat":"48.8465185","lon":"2.3692152","name":"Ledru Rollin","address":"20 avenue Ledru Rollin","city":"Paris","id":263},{"lat":"48.8431847","lon":"2.3837959","name":"Charles Bossut","address":"4 Rue Charles Bossut","city":"Paris","id":264},{"lat":"48.8473293","lon":"2.3856322","name":"Diderot","address":"73 boulevard Diderot","city":"Paris","id":265},{"lat":"48.84837","lon":"2.367915","name":"Bastille","address":"20 boulevard de la Bastille","city":"Paris","id":266},{"lat":"48.8458586","lon":"2.3748769","name":"Diderot","address":"24 boulevard Diderot","city":"Paris","id":267},{"lat":"48.8470504","lon":"2.3815222","name":"Crozatier","address":"33 rue Crozatier","city":"Paris","id":268},{"lat":"48.8382761","lon":"2.3816754","name":"Bercy","address":"88 rue de Bercy","city":"Paris","id":269},{"lat":"48.8476733","lon":"2.377312","name":"Charenton","address":"97 Rue de Charenton","city":"Paris","id":270},{"lat":"48.841876","lon":"2.375976","name":"Villiot","address":"20 Rue Villiot","city":"Paris","id":271},{"lat":"48.8419525","lon":"2.3728276","name":"Rap\u00e9e","address":"46 quai de la Rap\u00e9e","city":"Paris","id":272},{"lat":"48.8472143","lon":"2.3717355","name":"Lyon","address":"19 Rue de Lyon","city":"Paris","id":273},{"lat":"48.8493367","lon":"2.3895684","name":"Saint-Antoine","address":"238 Rue du Faubourg Saint-Antoine","city":"Paris","id":274},{"lat":"48.84154","lon":"2.389211","name":"Henard","address":"3 Rue Henard","city":"Paris","id":275},{"lat":"48.8334137","lon":"2.388111","name":"Pirogues de Bercy","address":"44 Rue des Pirogues de Bercy","city":"Paris","id":276},{"lat":"48.8480068","lon":"2.3940643","name":"Diderot","address":"172 boulevard Diderot","city":"Paris","id":277},{"lat":"48.839307","lon":"2.3971468","name":"Daumesnil","address":"199 avenue Daumesnil","city":"Paris","id":278},{"lat":"48.8461408","lon":"2.4104799","name":"Soult","address":"137 boulevard Soult","city":"Paris","id":279},{"lat":"48.8444","lon":"2.407044","name":"Saint-Mand\u00e9","address":"94 avenue de Saint-Mand\u00e9","city":"Paris","id":280},{"lat":"48.8449828","lon":"2.4019623","name":"Saint-Mand\u00e9","address":"48 Avenue de Saint-Mand\u00e9","city":"Paris","id":281},{"lat":"48.8455775","lon":"2.3953738","name":"Fabre d'\u00c9glantine","address":"2 Rue Fabre d'\u00c9glantine","city":"Paris","id":282},{"lat":"48.840277","lon":"2.3946269","name":"Reuilly","address":"116 rue de Reuilly","city":"Paris","id":283},{"lat":"48.8406851","lon":"2.400428","name":"Picpus","address":"7 boulevard de Picpus","city":"Paris","id":284},{"lat":"48.8415951","lon":"2.4050137","name":"Arnold Netter","address":"10 Avenue du Docteur Arnold Netter","city":"Paris","id":285},{"lat":"48.8345778","lon":"2.4076458","name":"Laperrine","address":"15 avenue du G\u00e9n\u00e9ral Laperrine","city":"Paris","id":286},{"lat":"48.8351899","lon":"2.4002905","name":"Claude Decaen","address":"26 rue Claude Decaen","city":"Paris","id":287},{"lat":"48.839191","lon":"2.3878529","name":"Charolais","address":"2 rue du Charolais","city":"Paris","id":288},{"lat":"48.8364094","lon":"2.3922556","name":"Charenton","address":"251 rue de Charenton","city":"Paris","id":289},{"lat":"48.8355193","lon":"2.3850356","name":"Pommard","address":"7 rue de Pommard","city":"Paris","id":290},{"lat":"48.8311","lon":"2.398697","name":"Porte de Charenton","address":"2 avenue de la Porte de Charenton","city":"Paris","id":291},{"lat":"48.8373149","lon":"2.4022445","name":"Picpus","address":"122 ter Rue de Picpus","city":"Paris","id":292},{"lat":"48.84071","lon":"2.409631","name":"\u00c9mile Laurent","address":"1 avenue \u00c9mile Laurent","city":"Paris","id":293},{"lat":"48.84756","lon":"2.397014","name":"Nation","address":"26 Place de la Nation","city":"Paris","id":294},{"lat":"48.8403578","lon":"2.378739","name":"Bercy","address":"5 boulevard de Bercy","city":"Paris","id":295},{"lat":"48.8295778","lon":"2.3537665","name":"Bobillot","address":"16 rue Bobillot","city":"Paris","id":296},{"lat":"48.8351639","lon":"2.3446053","name":"Arago","address":"52 boulevard Arago","city":"Paris","id":297},{"lat":"48.8186561","lon":"2.3623864","name":"Paulin Enfert","address":"6 rue Paulin Enfert","city":"Paris","id":298},{"lat":"48.8276393","lon":"2.3810867","name":"Marie-Andr\u00e9e Lagroua Weil-Halle","address":"2 rue Marie-Andr\u00e9e Lagroua Weil-Halle","city":"Paris","id":299},{"lat":"48.83164","lon":"2.342243","name":"Auguste Blanqui","address":"120 boulevard Auguste Blanqui","city":"Paris","id":300},{"lat":"48.82195","lon":"2.345853","name":"Rungis","address":"2 Rue de Rungis","city":"Paris","id":301},{"lat":"48.8345242","lon":"2.353056","name":"Croulebarbe","address":"1 rue Croulebarbe","city":"Paris","id":302},{"lat":"48.8262319","lon":"2.3424498","name":"Tolbiac","address":"245 rue de Tolbiac","city":"Paris","id":303},{"lat":"48.82847","lon":"2.361255","name":"Charles Moureu","address":"42 rue Charles Moureu","city":"Paris","id":304},{"lat":"48.8310493","lon":"2.3460584","name":"Vulpian","address":"24 Rue Vulpian","city":"Paris","id":305},{"lat":"48.8356","lon":"2.350015","name":"Berbier du Mets","address":"26 rue Berbier du Mets","city":"Paris","id":306},{"lat":"48.8204223","lon":"2.3512076","name":"Gouthi\u00e8re","address":"12 Rue Gouthi\u00e8re","city":"Paris","id":307},{"lat":"48.8268565","lon":"2.3665764","name":"Nationale","address":"77 Rue Nationale","city":"Paris","id":308},{"lat":"48.8299453","lon":"2.3499186","name":"Auguste Blanqui","address":"50 Boulevard Auguste Blanqui","city":"Paris","id":309},{"lat":"48.83185","lon":"2.354094","name":"S\u0153ur Rosalie","address":"4 avenue de la S\u0153ur Rosalie","city":"Paris","id":310},{"lat":"48.8257617","lon":"2.3512073","name":"Tolbiac","address":"189 Rue de Tolbiac","city":"Paris","id":311},{"lat":"48.8260824","lon":"2.3580488","name":"Tolbiac","address":"145 rue de Tolbiac","city":"Paris","id":312},{"lat":"48.82223","lon":"2.358905","name":"Caillaux","address":"24 rue Caillaux","city":"Paris","id":313},{"lat":"48.8205622","lon":"2.3643333","name":"Choisy","address":"8 avenue de Choisy","city":"Paris","id":314},{"lat":"48.82175","lon":"2.36868","name":"Ivry","address":"3 avenue d'Ivry","city":"Paris","id":315},{"lat":"48.824068","lon":"2.364308","name":"Ivry","address":"58 Avenue D'Ivry","city":"Paris","id":316},{"lat":"48.8279725","lon":"2.3721949","name":"Tolbiac","address":"41 rue de Tolbiac","city":"Paris","id":317},{"lat":"48.8250327","lon":"2.3725162","name":"Eug\u00e8ne Oudin\u00e9","address":"51 Rue Eug\u00e8ne Oudin\u00e9","city":"Paris","id":318},{"lat":"48.8304583","lon":"2.3672231","name":"Jeanne D'Arc","address":"45 rue Jeanne D'Arc","city":"Paris","id":319},{"lat":"48.8328237","lon":"2.3624101","name":"Vincent Auriol","address":"143 boulevard Vincent Auriol","city":"Paris","id":320},{"lat":"48.8332654","lon":"2.3568808","name":"H\u00f4pital","address":"157 Boulevard de L'H\u00f4pital","city":"Paris","id":321},{"lat":"48.8365583","lon":"2.3592348","name":"Jeanne D'Arc","address":"157 rue Jeanne D'Arc","city":"Paris","id":322},{"lat":"48.8344789","lon":"2.3672062","name":"Vincent Auriol","address":"81 Boulevard Vincent Auriol","city":"Paris","id":323},{"lat":"48.84019","lon":"2.362478","name":"H\u00f4pital","address":"47 boulevard de l'H\u00f4pital","city":"Paris","id":324},{"lat":"48.8362302","lon":"2.3724643","name":"Fernand Braudel","address":"21 rue Fernand Braudel","city":"Paris","id":325},{"lat":"48.83186","lon":"2.372548","name":"Chevaleret","address":"131 rue du Chevaleret","city":"Paris","id":326},{"lat":"48.82881","lon":"2.376281","name":"Chevaleret","address":"79 rue du Chevaleret","city":"Paris","id":327},{"lat":"48.8292818","lon":"2.3744385","name":"Tolbiac","address":"15 bis rue de Tolbiac","city":"Paris","id":328},{"lat":"48.82934","lon":"2.382635","name":"Fran\u00e7oise Dolto","address":"1 rue Fran\u00e7oise Dolto","city":"Paris","id":329},{"lat":"48.82325","lon":"2.354296","name":"Leray","address":"10 rue du Docteur Leray","city":"Paris","id":330},{"lat":"48.8303916","lon":"2.356917","name":"Choisy","address":"188 Avenue de Choisy","city":"Paris","id":331},{"lat":"48.83171","lon":"2.379246","name":"Frigos","address":"24 rue des Frigos","city":"Paris","id":332},{"lat":"48.8231521","lon":"2.3753988","name":"Darmesteter","address":"12 rue Darmesteter","city":"Paris","id":333},{"lat":"48.822183","lon":"2.3248774","name":"25 Ao\u00fbt 1944","address":"8 Place du 25 Ao\u00fbt 1944","city":"Paris","id":334},{"lat":"48.83273","lon":"2.32608","name":"Castagnou","address":"10 rue Castagnou","city":"Paris","id":335},{"lat":"48.8395108","lon":"2.3301676","name":"Edgar Quinet","address":"2 boulevard Edgar Quinet","city":"Paris","id":336},{"lat":"48.8348549","lon":"2.3297831","name":"Boulard","address":"1 rue Boulard","city":"Paris","id":337},{"lat":"48.83912","lon":"2.337229","name":"Henri Barbusse","address":"66 rue Henri Barbusse","city":"Paris","id":338},{"lat":"48.8388247","lon":"2.3221905","name":"Maine","address":"78 Avenue du Maine","city":"Paris","id":339},{"lat":"48.8318566","lon":"2.3202972","name":"Didot","address":"41 rue Didot","city":"Paris","id":340},{"lat":"48.8266807","lon":"2.3237355","name":"Jean Moulin","address":"34 avenue Jean Moulin","city":"Paris","id":341},{"lat":"48.8343392","lon":"2.3178674","name":"Pernety","address":"46 Rue Pernety","city":"Paris","id":342},{"lat":"48.83126","lon":"2.313088","name":"Raymond Losserand","address":"145 Rue Raymond Losserand","city":"Paris","id":343},{"lat":"48.842173","lon":"2.323305","name":"D\u00e9part","address":"23 rue du D\u00e9part","city":"Paris","id":344},{"lat":"48.82844","lon":"2.336613","name":"Broussais","address":"32 rue Broussais","city":"Paris","id":345},{"lat":"48.83072","lon":"2.325855","name":"Maine","address":"185 avenue du Maine","city":"Paris","id":346},{"lat":"48.8368865","lon":"2.3242513","name":"Froidevaux","address":"71 rue Froidevaux","city":"Paris","id":347},{"lat":"48.8283698","lon":"2.3216963","name":"Plantes","address":"56 Rue des Plantes","city":"Paris","id":348},{"lat":"48.827687","lon":"2.3330017","name":"Al\u00e9sia","address":"33 rue d'Al\u00e9sia","city":"Paris","id":349},{"lat":"48.8256986","lon":"2.3263394","name":"Leclerc","address":"101 Avenue du G\u00e9n\u00e9ral Leclerc","city":"Paris","id":350},{"lat":"48.8254486","lon":"2.3117069","name":"Georges Lafenestre","address":"11 avenue Georges Lafenestre","city":"Paris","id":351},{"lat":"48.828","lon":"2.306022","name":"Raymond Losserand","address":"229 Rue Raymond Losserand","city":"Paris","id":352},{"lat":"48.8236394","lon":"2.3319004","name":"Reille","address":"59 avenue Reille","city":"Paris","id":353},{"lat":"48.8249705","lon":"2.3382509","name":"Sibelle","address":"29 avenue de la Sibelle","city":"Paris","id":354},{"lat":"48.8308657","lon":"2.3339608","name":"Ren\u00e9 Coty","address":"11 avenue Ren\u00e9 Coty","city":"Paris","id":355},{"lat":"48.8345527","lon":"2.3361913","name":"Arago","address":"85 Boulevard Arago","city":"Paris","id":356},{"lat":"48.834286","lon":"2.3338533","name":"Arago","address":"99 Boulevard Arago","city":"Paris","id":357},{"lat":"48.8367951","lon":"2.3186569","name":"Catalogne","address":"2 Place de Catalogne","city":"Paris","id":358},{"lat":"48.8237041","lon":"2.3195528","name":"Nicolas Taunay","address":"7 rue Nicolas Taunay","city":"Paris","id":359},{"lat":"48.8207604","lon":"2.3370783","name":"Jourdan","address":"26 Boulevard Jourdan","city":"Paris","id":360},{"lat":"48.8287242","lon":"2.3165845","name":"Didot","address":"80 rue Didot","city":"Paris","id":361},{"lat":"48.8230593","lon":"2.322823","name":"Porte de Montrouge","address":"8 Avenue de la Porte de Montrouge","city":"Paris","id":362},{"lat":"48.83293","lon":"2.336582","name":"Saint-Jacques","address":"59 boulevard Saint-Jacques","city":"Paris","id":363},{"lat":"48.8344374","lon":"2.3137055","name":"Vercing\u00e9torix","address":"106 rue Vercing\u00e9torix","city":"Paris","id":364},{"lat":"48.8383124","lon":"2.3408664","name":"Port-Royal","address":"97 boulevard de Port-Royal","city":"Paris","id":365},{"lat":"48.8374265","lon":"2.3221143","name":"Ouest","address":"6 rue de l'Ouest","city":"Paris","id":366},{"lat":"48.854819","lon":"2.2904053","name":"F\u00e9d\u00e9ration","address":"10 rue de la F\u00e9d\u00e9ration","city":"Paris","id":367},{"lat":"48.8522422","lon":"2.2861675","name":"Grenelle","address":"37 quai de Grenelle","city":"Paris","id":368},{"lat":"48.843154","lon":"2.321689","name":"Arriv\u00e9e","address":"16 rue de l'Arriv\u00e9e","city":"Paris","id":369},{"lat":"48.851832","lon":"2.2997986","name":"Suffren","address":"78 avenue de Suffren","city":"Paris","id":370},{"lat":"48.8483434","lon":"2.3010296","name":"Grenelle","address":"139 boulevard de Grenelle","city":"Paris","id":371},{"lat":"48.8287264","lon":"2.2989061","name":"Jean Sicard","address":"1 rue Jean Sicard","city":"Paris","id":372},{"lat":"48.8395783","lon":"2.2986453","name":"Gerbert","address":"11 rue Gerbert","city":"Paris","id":373},{"lat":"48.846148","lon":"2.278533","name":"Emile Zola","address":"6 avenue Emile Zola","city":"Paris","id":374},{"lat":"48.8490157","lon":"2.2874011","name":"H\u00e9ricart","address":"54 rue H\u00e9ricart","city":"Paris","id":375},{"lat":"48.8370178","lon":"2.2986736","name":"Olivier de Serres","address":"3 rue Olivier de Serres","city":"Paris","id":376},{"lat":"48.83492","lon":"2.302564","name":"Cronstadt","address":"2 rue de Cronstadt","city":"Paris","id":377},{"lat":"48.8467033","lon":"2.2844167","name":"\u00c9mile Zola","address":"65 Avenue \u00c9mile Zola","city":"Paris","id":378},{"lat":"48.8451076","lon":"2.287503","name":"Lourmel","address":"79 rue de Lourmel","city":"Paris","id":379},{"lat":"48.8439105","lon":"2.2796928","name":"S\u00e9bastien Mercier","address":"44 rue S\u00e9bastien Mercier","city":"Paris","id":380},{"lat":"48.8325995","lon":"2.2788853","name":"Colonel Pierre Avia","address":"1 Rue du Colonel Pierre Avia","city":"Paris","id":381},{"lat":"48.8415895","lon":"2.3183413","name":"Vaugirard","address":"20 Boulevard de Vaugirard","city":"Paris","id":382},{"lat":"48.8425947","lon":"2.2920513","name":"Etienne Pernet","address":"26 Place Etienne Pernet","city":"Paris","id":383},{"lat":"48.8406886","lon":"2.2876391","name":"Houdart de Lamotte","address":"2 Rue Houdart de Lamotte","city":"Paris","id":384},{"lat":"48.8412037","lon":"2.2977543","name":"Lecourbe","address":"178 Rue Lecourbe","city":"Paris","id":385},{"lat":"48.8458068","lon":"2.3038076","name":"Miollis","address":"21 rue Miollis","city":"Paris","id":386},{"lat":"48.83984","lon":"2.273328","name":"Leblanc","address":"19 Rue Leblanc","city":"Paris","id":387},{"lat":"48.8389208","lon":"2.2824849","name":"F\u00e9lix Faure","address":"109 avenue F\u00e9lix Faure","city":"Paris","id":388},{"lat":"48.83731","lon":"2.278682","name":"Balard","address":"108 Rue Balard","city":"Paris","id":389},{"lat":"48.8373119","lon":"2.2847182","name":"Lecourbe","address":"336 Rue Lecourbe","city":"Paris","id":390},{"lat":"48.835427","lon":"2.2851648","name":"Vasco de Gama","address":"74 rue Vasco de Gama","city":"Paris","id":391},{"lat":"48.8425678","lon":"2.2848904","name":"Convention","address":"75 Rue de la Convention","city":"Paris","id":392},{"lat":"48.8351985","lon":"2.2914295","name":"Olier","address":"15 rue Olier","city":"Paris","id":393},{"lat":"48.8335103","lon":"2.2987201","name":"Dantzig","address":"37 rue de Dantzig","city":"Paris","id":394},{"lat":"48.8304","lon":"2.295999","name":"Dantzig","address":"80 Rue de Dantzig","city":"Paris","id":395},{"lat":"48.8388875","lon":"2.2892983","name":"Croix Nivert","address":"192 rue de la Croix Nivert","city":"Paris","id":396},{"lat":"48.8454505","lon":"2.292136","name":"Commerce","address":"5 Place du Commerce","city":"Paris","id":397},{"lat":"48.8383125","lon":"2.2943442","name":"Convention","address":"171 Rue de la Convention","city":"Paris","id":398},{"lat":"48.8471694","lon":"2.2953347","name":"\u00c9mile Zola","address":"143 Avenue \u00c9mile Zola","city":"Paris","id":399},{"lat":"48.8338872","lon":"2.3081344","name":"Vouill\u00e9","address":"47 Rue de Vouill\u00e9","city":"Paris","id":400},{"lat":"48.8436147","lon":"2.2961243","name":"Mademoiselle","address":"22 Rue Mademoiselle","city":"Paris","id":401},{"lat":"48.8482831","lon":"2.2905269","name":"Lourmel","address":"33 rue de Lourmel","city":"Paris","id":402},{"lat":"48.8434786","lon":"2.2994811","name":"Mademoiselle","address":"67 rue Mademoiselle","city":"Paris","id":403},{"lat":"48.842111","lon":"2.3091306","name":"\u00c9mile Duclaux","address":"19 Rue \u00c9mile Duclaux","city":"Paris","id":404},{"lat":"48.8512259","lon":"2.2912934","name":"Finlay","address":"43 rue du Docteur Finlay","city":"Paris","id":405},{"lat":"48.8447061","lon":"2.3198109","name":"Maine","address":"4 Avenue du Maine","city":"Paris","id":406},{"lat":"48.8426446","lon":"2.3132661","name":"Pasteur","address":"41 Boulevard Pasteur","city":"Paris","id":407},{"lat":"48.84595","lon":"2.309411","name":"Suffren","address":"161 Avenue de Suffren","city":"Paris","id":408},{"lat":"48.8539296","lon":"2.2964095","name":"Suffren","address":"44 Avenue de Suffren","city":"Paris","id":409},{"lat":"48.8373656","lon":"2.3059905","name":"Paul Barruel","address":"44 rue Paul Barruel","city":"Paris","id":410},{"lat":"48.8412857","lon":"2.2813956","name":"Lacordaire","address":"56 Rue Lacordaire","city":"Paris","id":411},{"lat":"48.8445403","lon":"2.2771564","name":"Balard","address":"18 Rue Balard","city":"Paris","id":412},{"lat":"48.8435537","lon":"2.3061617","name":"Lecourbe","address":"63 rue Lecourbe","city":"Paris","id":413},{"lat":"48.8404209","lon":"2.3042578","name":"Vaugirard","address":"230 Rue de Vaugirard","city":"Paris","id":414},{"lat":"48.857","lon":"2.2917","name":"Suffren","address":"2 Avenue de Suffren","city":"Paris","id":415},{"lat":"48.8385459","lon":"2.3126749","name":"Cotentin","address":"29 rue du Cotentin","city":"Paris","id":416},{"lat":"48.8319972","lon":"2.3048474","name":"Morillons","address":"95 rue des Morillons","city":"Paris","id":417},{"lat":"48.848923","lon":"2.3045476","name":"Suffren","address":"112 Avenue de Suffren","city":"Paris","id":418},{"lat":"48.8478735","lon":"2.2847016","name":"Beaugrenelle","address":"4 rue Beaugrenelle","city":"Paris","id":419},{"lat":"48.874641","lon":"2.2915841","name":"Grande Arm\u00e9e","address":"13 avenue de la Grande Arm\u00e9e","city":"Paris","id":420},{"lat":"48.8653828","lon":"2.2945784","name":"I\u00e9na","address":"24 Avenue d'I\u00e9na","city":"Paris","id":421},{"lat":"48.870343","lon":"2.286851","name":"Victor Hugo","address":"60 Avenue Victor Hugo","city":"Paris","id":422},{"lat":"48.8724415","lon":"2.2915577","name":"Victor Hugo","address":"18 Avenue Victor Hugo","city":"Paris","id":423},{"lat":"48.8684739","lon":"2.2926576","name":"\u00c9tats-Unis","address":"16 place des \u00c9tats-Unis","city":"Paris","id":424},{"lat":"48.87678","lon":"2.284807","name":"Grande Arm\u00e9e","address":"81 avenue de la Grande Arm\u00e9e","city":"Paris","id":425},{"lat":"48.87031","lon":"2.275537","name":"Flandrin","address":"83 boulevard Flandrin","city":"Paris","id":426},{"lat":"48.8534164","lon":"2.2685249","name":"Mozart","address":"68 avenue Mozart","city":"Paris","id":427},{"lat":"48.8669712","lon":"2.2858795","name":"Raymond Poincar\u00e9","address":"51 avenue Raymond Poincar\u00e9","city":"Paris","id":428},{"lat":"48.8639711","lon":"2.2880679","name":"Kl\u00e9ber","address":"89 avenue Kl\u00e9ber","city":"Paris","id":429},{"lat":"48.8673767","lon":"2.2988559","name":"Pierre 1er de Serbie","address":"33 Avenue Pierre 1er de Serbie","city":"Paris","id":430},{"lat":"48.84744","lon":"2.258728","name":"Murat","address":"1 Boulevard Murat","city":"Paris","id":431},{"lat":"48.8639536","lon":"2.2806137","name":"Georges Mandel","address":"42 bis avenue Georges Mandel","city":"Paris","id":432},{"lat":"48.8602593","lon":"2.2740467","name":"\u00c9mile Augier","address":"20 Boulevard \u00c9mile Augier","city":"Paris","id":433},{"lat":"48.8612923","lon":"2.28423","name":"P\u00e9trarque","address":"2 rue P\u00e9trarque","city":"Paris","id":434},{"lat":"48.8735","lon":"2.284304","name":"Malakoff","address":"115 avenue de Malakoff","city":"Paris","id":435},{"lat":"48.85775","lon":"2.281404","name":"Chernoviz","address":"12 rue Chernoviz","city":"Paris","id":436},{"lat":"48.85791","lon":"2.273956","name":"Mozart","address":"2 Avenue Mozart","city":"Paris","id":437},{"lat":"48.8538134","lon":"2.2768772","name":"Ranelagh","address":"33 Rue du Ranelagh","city":"Paris","id":438},{"lat":"48.8658188","lon":"2.2762194","name":"Victor Hugo","address":"180 Avenue Victor Hugo","city":"Paris","id":439},{"lat":"48.8585701","lon":"2.2851211","name":"Delessert","address":"23 Boulevard Delessert","city":"Paris","id":440},{"lat":"48.8629938","lon":"2.2857836","name":"Georges Mandel","address":"1 avenue Georges Mandel","city":"Paris","id":441},{"lat":"48.8487919","lon":"2.2661693","name":"Jean de la Fontaine","address":"77 Rue Jean de la Fontaine","city":"Paris","id":442},{"lat":"48.8566608","lon":"2.2856025","name":"Eaux","address":"2 rue des Eaux","city":"Paris","id":443},{"lat":"48.8509978","lon":"2.2719012","name":"Jean de la Fontaine","address":"42 rue Jean de la Fontaine","city":"Paris","id":444},{"lat":"48.83791","lon":"2.262842","name":"Murat","address":"157 boulevard Murat","city":"Paris","id":445},{"lat":"48.8478478","lon":"2.2723059","name":"R\u00e9musat","address":"8 rue R\u00e9musat","city":"Paris","id":446},{"lat":"48.845175","lon":"2.2641594","name":"Molitor","address":"16 Rue Molitor","city":"Paris","id":447},{"lat":"48.8515283","lon":"2.2678125","name":"Mozart","address":"101 Avenue Mozart","city":"Paris","id":448},{"lat":"48.8412643","lon":"2.2643832","name":"Exelmans","address":"32 boulevard Exelmans","city":"Paris","id":449},{"lat":"48.8432612","lon":"2.259497","name":"Exelmans","address":"77 Boulevard Exelmans","city":"Paris","id":450},{"lat":"48.8389361","lon":"2.2567427","name":"Murat","address":"98 boulevard Murat","city":"Paris","id":451},{"lat":"48.8437929","lon":"2.2698931","name":"Versailles","address":"112 Avenue de Versailles","city":"Paris","id":452},{"lat":"48.8654617","lon":"2.2995713","name":"Marceau","address":"1 Avenue Marceau","city":"Paris","id":453},{"lat":"48.8713288","lon":"2.295196","name":"I\u00e9na","address":"63 avenue d'I\u00e9na","city":"Paris","id":454},{"lat":"48.876733","lon":"2.265867","name":"Mahatma Gandhi","address":"6 avenue du Mahatma Gandhi","city":"Paris","id":455},{"lat":"48.8646007","lon":"2.2754417","name":"Henri Martin","address":"70 avenue Henri Martin","city":"Paris","id":456},{"lat":"48.867315","lon":"2.280347","name":"Pompe","address":"137 rue de la Pompe","city":"Paris","id":457},{"lat":"48.8531","lon":"2.2616981","name":"Square Tolsto\u00ef","address":"2 square Tolsto\u00ef","city":"Paris","id":458},{"lat":"48.85926","lon":"2.267881","name":"Rapha\u00ebl","address":"20 avenue Rapha\u00ebl","city":"Paris","id":459},{"lat":"48.8507539","lon":"2.2739245","name":"Th\u00e9ophile Gauthier","address":"14 avenue Th\u00e9ophile Gauthier","city":"Paris","id":460},{"lat":"48.8698929","lon":"2.2976445","name":"Marceau","address":"59 avenue Marceau","city":"Paris","id":461},{"lat":"48.859756","lon":"2.2786938","name":"Paul Doumer","address":"72 Avenue Paul Doumer","city":"Paris","id":462},{"lat":"48.8533737","lon":"2.2794884","name":"Ranelagh","address":"10 Rue du Ranelagh","city":"Paris","id":463},{"lat":"48.8644046","lon":"2.2710381","name":"Adolphe Yvon","address":"6 Rue Adolphe Yvon","city":"Paris","id":464},{"lat":"48.8478619","lon":"2.2745266","name":"Versailles","address":"53 avenue de Versailles","city":"Paris","id":465},{"lat":"48.8781047","lon":"2.2851178","name":"Pereire","address":"271 Boulevard Pereire","city":"Paris","id":466},{"lat":"48.8975767","lon":"2.3232481","name":"Porte Pouchet","address":"1 Avenue de la Porte Pouchet","city":"Paris","id":467},{"lat":"48.8955462","lon":"2.3282817","name":"Navier","address":"1 Rue Navier","city":"Paris","id":468},{"lat":"48.8754776","lon":"2.2945178","name":"Mac Mahon","address":"5 Avenue Mac Mahon","city":"Paris","id":469},{"lat":"48.88558","lon":"2.296675","name":"Courcelles","address":"188 rue de Courcelles","city":"Paris","id":470},{"lat":"48.8794622","lon":"2.2899947","name":"Ternes","address":"73 avenue des Ternes","city":"Paris","id":471},{"lat":"48.8916817","lon":"2.318781","name":"Pouchet","address":"4 rue Pouchet","city":"Paris","id":472},{"lat":"48.8914427","lon":"2.3040083","name":"Marguerite Long","address":"11 rue Marguerite Long","city":"Paris","id":473},{"lat":"48.88676","lon":"2.311893","name":"Jouffroy d'Abbans","address":"14 rue Jouffroy d'Abbans","city":"Paris","id":474},{"lat":"48.88879","lon":"2.32219","name":"Legendre","address":"126 Rue Legendre","city":"Paris","id":475},{"lat":"48.8957574","lon":"2.3242009","name":"Navier","address":"47 rue Navier","city":"Paris","id":476},{"lat":"48.884737","lon":"2.321309","name":"Batignolles","address":"27 Rue des Batignolles","city":"Paris","id":477},{"lat":"48.8817521","lon":"2.317631","name":"Batignolles","address":"92 Boulevard des Batignolles","city":"Paris","id":478},{"lat":"48.8863019","lon":"2.3151179","name":"Dulong","address":"67 Rue Dulong","city":"Paris","id":479},{"lat":"48.88112","lon":"2.284095","name":"Ko\u00ebnig","address":"12 place du G\u00e9n\u00e9ral Ko\u00ebnig","city":"Paris","id":480},{"lat":"48.8832876","lon":"2.3080623","name":"Villiers","address":"46 Avenue de Villiers","city":"Paris","id":481},{"lat":"48.8856219","lon":"2.2942252","name":"Berthier","address":"97 boulevard Berthier","city":"Paris","id":482},{"lat":"48.8876949","lon":"2.3050366","name":"Pereire","address":"50 Boulevard Pereire","city":"Paris","id":483},{"lat":"48.8840365","lon":"2.2896705","name":"Galvani","address":"25 rue de Galvani","city":"Paris","id":484},{"lat":"48.8941653","lon":"2.3211581","name":"Jonqui\u00e8re","address":"66 rue de la Jonqui\u00e8re","city":"Paris","id":485},{"lat":"48.8799479","lon":"2.2993184","name":"Wagram","address":"77 Avenue de Wagram","city":"Paris","id":486},{"lat":"48.87959","lon":"2.303352","name":"Chazelles","address":"1 rue Chazelles","city":"Paris","id":487},{"lat":"48.8849507","lon":"2.3035012","name":"Br\u00e9montier","address":"19 rue Br\u00e9montier","city":"Paris","id":488},{"lat":"48.8867348","lon":"2.2955406","name":"Courcelles","address":"210 rue de Courcelles","city":"Paris","id":489},{"lat":"48.8788442","lon":"2.2878557","name":"Brunel","address":"42 rue Brunel","city":"Paris","id":490},{"lat":"48.881032","lon":"2.2956282","name":"Niel","address":"28 avenue de Niel","city":"Paris","id":491},{"lat":"48.8854246","lon":"2.2849721","name":"Porte de Villiers","address":"28 Avenue de la Porte de Villiers","city":"Paris","id":492},{"lat":"48.876042","lon":"2.288446","name":"Grande Arm\u00e9e","address":"40 Avenue de la Grande Arm\u00e9e","city":"Paris","id":493},{"lat":"48.89351","lon":"2.314814","name":"Clichy","address":"181 quater Avenue de Clichy","city":"Paris","id":494},{"lat":"48.8901162","lon":"2.2964035","name":"Raymond Pitet","address":"7 rue Raymond Pitet","city":"Paris","id":495},{"lat":"48.88576","lon":"2.299225","name":"Pereire","address":"115 Boulevard Pereire","city":"Paris","id":496},{"lat":"48.8845364","lon":"2.3246579","name":"Darcet","address":"28 rue Darcet","city":"Paris","id":497},{"lat":"48.8832659","lon":"2.3127515","name":"Legendre","address":"22 bis rue Legendre","city":"Paris","id":498},{"lat":"48.88093","lon":"2.309852","name":"Georges Berger","address":"2 Rue Georges Berger","city":"Paris","id":499},{"lat":"48.8823377","lon":"2.3018911","name":"Jouffroy d'Abbans","address":"108 Rue Jouffroy d'Abbans","city":"Paris","id":500},{"lat":"48.8884456","lon":"2.3160603","name":"Charles Fillion","address":"22 place Charles Fillion","city":"Paris","id":501},{"lat":"48.8782587","lon":"2.2967633","name":"Ternes","address":"6 avenue des Ternes","city":"Paris","id":502},{"lat":"48.8920729","lon":"2.32707","name":"Saint Ouen","address":"67 avenue de Saint Ouen","city":"Paris","id":503},{"lat":"48.8887616","lon":"2.3257382","name":"Saint-Ouen","address":"19 avenue de Saint-Ouen","city":"Paris","id":504},{"lat":"48.89919","lon":"2.330375","name":"Henri Huchard","address":"48 Rue Henri Huchard","city":"Paris","id":505},{"lat":"48.8850802","lon":"2.3375536","name":"Ravignan","address":"1bis rue Ravignan","city":"Paris","id":506},{"lat":"48.8945095","lon":"2.3320844","name":"Vauvenargues","address":"35 rue Vauvenargues","city":"Paris","id":507},{"lat":"48.8945152","lon":"2.3412577","name":"Poteau","address":"40 rue du Poteau","city":"Paris","id":508},{"lat":"48.8836276","lon":"2.3339857","name":"Clichy","address":"70 Boulevard de Clichy","city":"Paris","id":509},{"lat":"48.8893322","lon":"2.3442809","name":"Custine","address":"45 rue Custine","city":"Paris","id":510},{"lat":"48.895422","lon":"2.3499795","name":"Championnet","address":"28 rue Championnet","city":"Paris","id":511},{"lat":"48.898303","lon":"2.3423252","name":"Fernand Labori","address":"1 rue Fernand Labori","city":"Paris","id":512},{"lat":"48.8895441","lon":"2.3365418","name":"Caulaincourt","address":"71 rue Caulaincourt","city":"Paris","id":513},{"lat":"48.8913286","lon":"2.3385496","name":"Marcadet","address":"150 rue Marcadet","city":"Paris","id":514},{"lat":"48.8948847","lon":"2.3355224","name":"Championnet","address":"162 rue Championnet","city":"Paris","id":515},{"lat":"48.8856198","lon":"2.3531328","name":"Polonceau","address":"19 Rue Polonceau","city":"Paris","id":516},{"lat":"48.8872522","lon":"2.3330069","name":"Caulaincourt","address":"17 rue Caulaincourt","city":"Paris","id":517},{"lat":"48.8932768","lon":"2.3394999","name":"Ordener","address":"120 Rue Ordener","city":"Paris","id":518},{"lat":"48.8884213","lon":"2.3555937","name":"Doudeauville","address":"29 rue Doudeauville","city":"Paris","id":519},{"lat":"48.8916426","lon":"2.3449781","name":"Ramey","address":"62 Rue Ramey","city":"Paris","id":520},{"lat":"48.8955833","lon":"2.3457215","name":"Duhesme","address":"113 Rue Duhesme","city":"Paris","id":521},{"lat":"48.8913517","lon":"2.3507171","name":"Ordener","address":"65 rue Ordener","city":"Paris","id":522},{"lat":"48.8844148","lon":"2.3305461","name":"Rachel","address":"1 avenue Rachel","city":"Paris","id":523},{"lat":"48.8920824","lon":"2.3331353","name":"Marcadet","address":"220 rue Marcadet","city":"Paris","id":524},{"lat":"48.8850068","lon":"2.3475914","name":"Sofia","address":"16 Rue Sofia","city":"Paris","id":525},{"lat":"48.88608","lon":"2.359072","name":"Jean-Fran\u00e7ois L\u00e9pine","address":"1 rue Jean-Fran\u00e7ois L\u00e9pine","city":"Paris","id":526},{"lat":"48.89022","lon":"2.359383","name":"Ordener","address":"1 Rue Ordener","city":"Paris","id":527},{"lat":"48.8945881","lon":"2.3668072","name":"\u00c9vangile","address":"45 rue de l'\u00c9vangile","city":"Paris","id":528},{"lat":"48.895148","lon":"2.3595823","name":"Boucry","address":"35 rue de Boucry","city":"Paris","id":529},{"lat":"48.8967147","lon":"2.3591686","name":"Chapelle","address":"75 rue de la Chapelle","city":"Paris","id":530},{"lat":"48.8903813","lon":"2.3548773","name":"Marcadet","address":"7 rue Marcadet","city":"Paris","id":531},{"lat":"48.8883596","lon":"2.3480345","name":"Custine","address":"17 Rue Custine","city":"Paris","id":532},{"lat":"48.8996","lon":"2.351156","name":"Jean Cocteau","address":"2 rue Jean Cocteau","city":"Paris","id":533},{"lat":"48.8822728","lon":"2.3395493","name":"Clichy","address":"2 Boulevard de Clichy","city":"Paris","id":534},{"lat":"48.8984293","lon":"2.3347923","name":"Henry Brisson","address":"5 Rue Henry Brisson","city":"Paris","id":535},{"lat":"48.8990509","lon":"2.3649827","name":"Charles Hermite","address":"52 rue Charles Hermite","city":"Paris","id":536},{"lat":"48.8792228","lon":"2.3839164","name":"Botzaris","address":"50 rue Botzaris","city":"Paris","id":537},{"lat":"48.8911334","lon":"2.3725951","name":"Mathis","address":"35 rue Mathis","city":"Paris","id":538},{"lat":"48.891659","lon":"2.3775942","name":"Flandre","address":"119 avenue de Flandre","city":"Paris","id":539},{"lat":"48.90176","lon":"2.38589","name":"\u00c9mile Reynaud","address":"4 rue \u00c9mile Reynaud","city":"Paris","id":540},{"lat":"48.888195","lon":"2.3730799","name":"Flandre","address":"61 Avenue de Flandre","city":"Paris","id":541},{"lat":"48.8829","lon":"2.376374","name":"Armand Carrel","address":"46 rue Armand Carrel","city":"Paris","id":542},{"lat":"48.8917059","lon":"2.3690678","name":"Aubervilliers","address":"126 rue d'Aubervilliers","city":"Paris","id":543},{"lat":"48.8862071","lon":"2.3665248","name":"Aubervilliers","address":"38 rue d'Aubervilliers","city":"Paris","id":544},{"lat":"48.8799263","lon":"2.4004487","name":"Alg\u00e9rie","address":"7 boulevard d'Alg\u00e9rie","city":"Paris","id":545},{"lat":"48.8821153","lon":"2.3814316","name":"Manin","address":"69 Rue Manin","city":"Paris","id":546},{"lat":"48.8857","lon":"2.3833508","name":"Lorraine","address":"22 rue de Lorraine","city":"Paris","id":547},{"lat":"48.888588","lon":"2.3888175","name":"Adolphe Mille","address":"8 rue Adolphe Mille","city":"Paris","id":548},{"lat":"48.886098","lon":"2.3936","name":"Manin","address":"159 Rue Manin","city":"Paris","id":549},{"lat":"48.8886727","lon":"2.378104","name":"Seine","address":"77 Quai de Seine","city":"Paris","id":550},{"lat":"48.8848179","lon":"2.3901243","name":"Goubet","address":"8 rue Goubet","city":"Paris","id":551},{"lat":"48.8817709","lon":"2.3938462","name":"David d'Angers","address":"54 Rue David d'Angers","city":"Paris","id":552},{"lat":"48.87808","lon":"2.371484","name":"Mathurin Moreau","address":"6 avenue Mathurin Moreau","city":"Paris","id":553},{"lat":"48.877449","lon":"2.374112","name":"Simon Bolivar","address":"96 Avenue Simon Bolivar","city":"Paris","id":554},{"lat":"48.8893057","lon":"2.3835673","name":"Meurthe","address":"1 Rue de la Meurthe","city":"Paris","id":555},{"lat":"48.8768667","lon":"2.3811899","name":"Botzaris","address":"16 rue de Botzaris","city":"Paris","id":556},{"lat":"48.8794816","lon":"2.388647","name":"Botzaris","address":"76 rue Botzaris","city":"Paris","id":557},{"lat":"48.88075","lon":"2.397629","name":"S\u00e9rurier","address":"54 Boulevard S\u00e9rurier","city":"Paris","id":558},{"lat":"48.8727407","lon":"2.3782985","name":"Jules Romains","address":"1 Rue Jules Romains","city":"Paris","id":559},{"lat":"48.8989321","lon":"2.3740363","name":"Jacques Duchesne","address":"1 rue Jacques Duchesne","city":"Paris","id":560},{"lat":"48.88947","lon":"2.398229","name":"Sept Arpents","address":"9 Rue des Sept Arpents","city":"Paris","id":561},{"lat":"48.8777109","lon":"2.3916371","name":"Crim\u00e9e","address":"8 rue de Crim\u00e9e","city":"Paris","id":562},{"lat":"48.899335","lon":"2.371162","name":"Porte d'Aubervilliers","address":"10 avenue de la Porte d'Aubervilliers","city":"Paris","id":563},{"lat":"48.8846108","lon":"2.3697594","name":"Flandre","address":"6 avenue de Flandre","city":"Paris","id":564},{"lat":"48.8780077","lon":"2.3966042","name":"Bois","address":"1 rue des Bois","city":"Paris","id":565},{"lat":"48.8765968","lon":"2.3790176","name":"Manin","address":"1 rue Manin","city":"Paris","id":566},{"lat":"48.882362","lon":"2.386574","name":"Crim\u00e9e","address":"82 rue de Crim\u00e9e","city":"Paris","id":567},{"lat":"48.87869","lon":"2.409082","name":"Ren\u00e9 Fonck","address":"2 Avenue Ren\u00e9 Fonck","city":"Paris","id":568},{"lat":"48.894","lon":"2.380947","name":"Flandre","address":"169 avenue de Flandre","city":"Paris","id":569},{"lat":"48.8806038","lon":"2.37444","name":"Secr\u00e9tan","address":"44 avenue Secr\u00e9tan","city":"Paris","id":570},{"lat":"48.8821756","lon":"2.3708912","name":"Secr\u00e9tan","address":"4 Avenue Secr\u00e9tan","city":"Paris","id":571},{"lat":"48.8738701","lon":"2.3864659","name":"Pyr\u00e9n\u00e9es","address":"356 rue des Pyr\u00e9n\u00e9es","city":"Paris","id":572},{"lat":"48.8732135","lon":"2.3903853","name":"Pyr\u00e9n\u00e9es","address":"330 rue des Pyr\u00e9n\u00e9es","city":"Paris","id":573},{"lat":"48.8723314","lon":"2.3995098","name":"T\u00e9l\u00e9graphe","address":"16 rue du T\u00e9l\u00e9graphe","city":"Paris","id":574},{"lat":"48.8624944","lon":"2.4096676","name":"Jean Veber","address":"3 rue Jean Veber","city":"Paris","id":575},{"lat":"48.87083","lon":"2.403597","name":"Gambetta","address":"161 Avenue Gambetta","city":"Paris","id":576},{"lat":"48.8674784","lon":"2.3965939","name":"Pyr\u00e9n\u00e9es","address":"236 Rue des Pyr\u00e9n\u00e9es","city":"Paris","id":577},{"lat":"48.86191","lon":"2.388035","name":"M\u00e9nilmontant","address":"30 Boulevard de M\u00e9nilmontant","city":"Paris","id":578},{"lat":"48.8699519","lon":"2.3952568","name":"M\u00e9nilmontant","address":"122 Rue M\u00e9nilmontant","city":"Paris","id":579},{"lat":"48.86959","lon":"2.400348","name":"Pelleport","address":"105 bis Rue Pelleport","city":"Paris","id":580},{"lat":"48.8730881","lon":"2.4092069","name":"Gu\u00e9briant","address":"6 rue Gu\u00e9briant","city":"Paris","id":581},{"lat":"48.8632187","lon":"2.388968","name":"Gambetta","address":"1 Avenue Gambetta","city":"Paris","id":582},{"lat":"48.8656837","lon":"2.3929721","name":"Sorbier","address":"40 Rue Sorbier","city":"Paris","id":583},{"lat":"48.8698372","lon":"2.3850271","name":"Julien Lacroix","address":"39 rue Julien Lacroix","city":"Paris","id":584},{"lat":"48.85317","lon":"2.412055","name":"Charles et Robert","address":"6 rue Charles et Robert","city":"Paris","id":585},{"lat":"48.8614319","lon":"2.4056437","name":"Bagnolet","address":"142 Rue de Bagnolet","city":"Paris","id":586},{"lat":"48.8679083","lon":"2.4100481","name":"Maurice Berteaux","address":"2 rue Maurice Berteaux","city":"Paris","id":587},{"lat":"48.85844","lon":"2.402911","name":"Pyr\u00e9n\u00e9es","address":"137 Rue des Pyr\u00e9n\u00e9es","city":"Paris","id":588},{"lat":"48.8552253","lon":"2.3984912","name":"Monte Cristo","address":"24 rue Monte Cristo","city":"Paris","id":589},{"lat":"48.8491535","lon":"2.4133021","name":"Lagny","address":"117 rue de Lagny","city":"Paris","id":590},{"lat":"48.8557933","lon":"2.4079711","name":"Orteaux","address":"92 Rue des Orteaux","city":"Paris","id":591},{"lat":"48.854194","lon":"2.405656","name":"Pyr\u00e9n\u00e9es","address":"89 Rue des Pyr\u00e9n\u00e9es","city":"Paris","id":592},{"lat":"48.8587455","lon":"2.4101638","name":"Harpignies","address":"3 rue Harpignies","city":"Paris","id":593},{"lat":"48.8477968","lon":"2.4060203","name":"Vincennes","address":"65 cours de Vincennes","city":"Paris","id":594},{"lat":"48.8500605","lon":"2.4019645","name":"Plaine","address":"25 rue de la Plaine","city":"Paris","id":595},{"lat":"48.8691502","lon":"2.3808934","name":"Couronnes","address":"2 rue des Couronnes","city":"Paris","id":596},{"lat":"48.865359","lon":"2.405207","name":"Capitaine Ferber","address":"5 bis Rue du Capitaine Ferber","city":"Paris","id":597},{"lat":"48.8638511","lon":"2.3991848","name":"Pyr\u00e9n\u00e9es","address":"231 rue des Pyr\u00e9n\u00e9es","city":"Paris","id":598},{"lat":"48.8650994","lon":"2.3963304","name":"Gambetta","address":"65 Avenue Gambetta","city":"Paris","id":599},{"lat":"48.8676044","lon":"2.4021436","name":"Pelleport","address":"86 rue Pelleport","city":"Paris","id":600},{"lat":"48.8736473","lon":"2.3911798","name":"Fr\u00e9d\u00e9rick Lema\u00eetre","address":"5 rue Fr\u00e9d\u00e9rick Lema\u00eetre","city":"Paris","id":601},{"lat":"48.8637","lon":"2.390714","name":"Gambetta","address":"19 Avenue Gambetta","city":"Paris","id":602},{"lat":"48.8569151","lon":"2.3941433","name":"Charonne","address":"158 boulevard de Charonne","city":"Paris","id":603},{"lat":"48.8518536","lon":"2.3982137","name":"Charonne","address":"52 boulevard de Charonne","city":"Paris","id":604},{"lat":"48.8495131","lon":"2.4061582","name":"Fr\u00e9d\u00e9ric Loli\u00e9e","address":"5 rue Fr\u00e9d\u00e9ric Loli\u00e9e","city":"Paris","id":605},{"lat":"48.8757323","lon":"2.4060008","name":"Gambetta","address":"249 avenue Gambetta","city":"Paris","id":606},{"lat":"48.87559","lon":"2.399738","name":"Belleville","address":"265 rue de Belleville","city":"Paris","id":607},{"lat":"48.867322","lon":"2.3906964","name":"Sorbier","address":"14 rue Sorbier","city":"Paris","id":608},{"lat":"48.8657","lon":"2.408668","name":"Mortier","address":"15 boulevard Mortier","city":"Paris","id":609},{"lat":"48.8679058","lon":"2.3826171","name":"Belleville","address":"22 Boulevard de Belleville","city":"Paris","id":610},{"lat":"48.8291166","lon":"2.1165247","name":"Charles de Gaulle","address":"2 avenue Charles de Gaulle","city":"Le Chesnay","id":611},{"lat":"48.82542","lon":"2.118454","name":"Dutartre","address":"58 avenue Dutartre","city":"Le Chesnay","id":612},{"lat":"48.8259744","lon":"2.1259591","name":"Pottier","address":"7 rue Pottier","city":"Le Chesnay","id":613},{"lat":"48.829499","lon":"2.1275746","name":"Charles de Gaulle","address":"103 avenue Charles de Gaulle","city":"Le Chesnay","id":614},{"lat":"48.81562","lon":"2.129228","name":"Leclerc","address":"2 avenue du G\u00e9n\u00e9ral Leclerc","city":"Le Chesnay","id":615},{"lat":"48.7843152","lon":"2.1778157","name":"Robert Wagner","address":"17 avenue Robert Wagner","city":"V\u00e9lizy Villacoublay","id":616},{"lat":"48.7835303","lon":"2.2167345","name":"Dewoittine","address":"1 rue Dewoittine","city":"V\u00e9lizy-Villacoublay","id":617},{"lat":"48.78057","lon":"2.209982","name":"Paul Dautier","address":"2 rue Paul Dautier","city":"V\u00e9lizy Villacoublay","id":618},{"lat":"48.7817228","lon":"2.1913144","name":"Capitaine Tarron","address":"8 avenue du Capitaine Tarron","city":"V\u00e9lizy-Villacoublay","id":619},{"lat":"48.7848664","lon":"2.213804","name":"Marcel Dassault","address":"2 rue Marcel Dassault","city":"V\u00e9lizy-Villacoublay","id":620},{"lat":"48.75219","lon":"2.271931","name":"Pr\u00e9-Hauts","address":"1 Place des Pr\u00e9-Hauts","city":"Verri\u00e8res-le-Buisson","id":621},{"lat":"48.7457426","lon":"2.2691436","name":"Mar\u00e9chal Foch","address":"56 boulevard du Mar\u00e9chal Foch","city":"Verri\u00e8res-le-Buisson","id":622},{"lat":"48.7409291","lon":"2.2523628","name":"D'Estienne d'Orves","address":"204 rue d\u2019Estienne d\u2019Orves","city":"Verri\u00e8res-le-Buisson","id":623},{"lat":"48.7214","lon":"2.499922","name":"Raymond Poincarr\u00e9","address":"200 rue Raymond Poincarr\u00e9","city":"Yerres","id":624},{"lat":"48.716666","lon":"2.488177","name":"Charles-de-Gaulle","address":"1 rue Charles-de-Gaulle","city":"Yerres","id":625},{"lat":"48.7006549","lon":"2.4828313","name":"Pierre Brossolette","address":"92 rue Pierre Brossolette","city":"Yerres","id":626},{"lat":"48.75031","lon":"2.300768","name":"Anciens combattants d'Afrique du Nord","address":"1 place des Anciens combattants d'Afrique du Nord","city":"Antony","id":627},{"lat":"48.7549117","lon":"2.301541","name":"Velpeau","address":"14 rue Velpeau","city":"Antony","id":628},{"lat":"48.76307","lon":"2.306646","name":"De Gaulle","address":"11 avenue du G\u00e9n\u00e9ral De Gaulle","city":"Antony","id":629},{"lat":"48.7326149","lon":"2.3141819","name":"Alexis de Tocqueville","address":"4 rue Alexis de Tocqueville","city":"Antony","id":630},{"lat":"48.9100165","lon":"2.2897023","name":"Sadi Carnot","address":"10 Rue Sadi Carnot","city":"Asni\u00e8res-sur-Seine","id":631},{"lat":"48.9059332","lon":"2.2852074","name":"Normandie","address":"22 rue de Normandie","city":"Asni\u00e8res-sur-Seine","id":632},{"lat":"48.9073637","lon":"2.2830507","name":"Marne","address":"44 avenue de la Marne","city":"Asni\u00e8res-sur-Seine","id":633},{"lat":"48.9125949","lon":"2.2948209","name":"Jean-Jacques Rousseau","address":"2 Rue Jean-Jacques Rousseau","city":"Asni\u00e8res-sur-Seine","id":634},{"lat":"48.9120069","lon":"2.2863503","name":"Colombes","address":"4 rue de Colombes","city":"Asni\u00e8res-sur-Seine","id":635},{"lat":"48.91587","lon":"2.291084","name":"Georges Guynemer","address":"97 Rue Georges Guynemer","city":"Asni\u00e8res-sur-Seine","id":636},{"lat":"48.9175117","lon":"2.281802","name":"Argenteuil","address":"152 avenue d'Argenteuil","city":"Asni\u00e8res-sur-Seine","id":637},{"lat":"48.9152642","lon":"2.2767942","name":"Henri Say","address":"11 rue Henri Say","city":"Asni\u00e8res-sur-Seine","id":638},{"lat":"48.9164","lon":"2.295224","name":"Bas","address":"6 Rue des Bas","city":"Asni\u00e8res-sur-Seine","id":639},{"lat":"48.92852","lon":"2.27253","name":"Robert Lavergne","address":"11 rue Robert Lavergne","city":"Asni\u00e8res-sur-Seine","id":640},{"lat":"48.9069487","lon":"2.2694015","name":"Denfert Rochereau","address":"8 Rue Denfert Rochereau","city":"Asni\u00e8res-sur-Seine","id":641},{"lat":"48.9094941","lon":"2.2754817","name":"Beno\u00eet Malon","address":"8 Rue Beno\u00eet Malon","city":"Asni\u00e8res-sur-Seine","id":642},{"lat":"48.9179468","lon":"2.3189865","name":"Olympe de Gouge","address":"1 rue Olympe de Gouge","city":"Asni\u00e8res-sur-Seine","id":643},{"lat":"48.9233235","lon":"2.2853356","name":"\u00c9mile Zola","address":"17 Rue \u00c9mile Zola","city":"Asni\u00e8res-sur-Seine","id":644},{"lat":"48.93068","lon":"2.281273","name":"Henri Poincar\u00e9","address":"53 rue Henri Poincar\u00e9","city":"Asni\u00e8res-sur-Seine","id":645},{"lat":"48.92582","lon":"2.274079","name":"M\u00e9nil","address":"273 rue du M\u00e9nil","city":"Asni\u00e8res-sur-Seine","id":646},{"lat":"48.7941792","lon":"2.3017033","name":"L\u00e9on Blum","address":"13 Rue L\u00e9on Blum","city":"Bagneux","id":647},{"lat":"48.79932","lon":"2.304576","name":"Ren\u00e9 Cros","address":"65 Rue Ren\u00e9 Cros","city":"Bagneux","id":648},{"lat":"48.8019167","lon":"2.321829","name":"Verdun","address":"127 rue de Verdun","city":"Bagneux","id":649},{"lat":"48.79006","lon":"2.313115","name":"Schweitzer","address":"1 rue du Docteur Schweitzer","city":"Bagneux","id":650},{"lat":"48.7991008","lon":"2.3177148","name":"Louis Pasteur","address":"17 Avenue Louis Pasteur","city":"Bagneux","id":651},{"lat":"48.8059298","lon":"2.3143019","name":"Jean Marin Naudin","address":"5 Rue Jean Marin Naudin","city":"Bagneux","id":652},{"lat":"48.7962","lon":"2.319759","name":"Albert Petit","address":"89 Avenue Albert Petit","city":"Bagneux","id":653},{"lat":"48.7920857","lon":"2.3065992","name":"Mathurins","address":"2 rue des Mathurins","city":"Bagneux","id":654},{"lat":"48.9151496","lon":"2.2692674","name":"Leclerc","address":"45 rue du G\u00e9n\u00e9ral Leclerc","city":"Bois-Colombes","id":655},{"lat":"48.90487","lon":"2.264084","name":"Raoul Nordling","address":"16 rue Raoul Nordling","city":"Bois-Colombes","id":656},{"lat":"48.8344135","lon":"2.2464756","name":"\u00c9douard Vaillant","address":"81 avenue \u00c9douard Vaillant","city":"Boulogne-Billancourt","id":657},{"lat":"48.833663","lon":"2.258714","name":"Abel Gance","address":"6 place Abel Gance","city":"Boulogne-Billancourt","id":658},{"lat":"48.840169","lon":"2.229398","name":"Andr\u00e9 Morizet","address":"121 avenue Andr\u00e9 Morizet","city":"Boulogne-Billancourt","id":659},{"lat":"48.83975","lon":"2.2400622","name":"Jean Jaur\u00e8s","address":"61 Boulevard Jean Jaur\u00e8s","city":"Boulogne-Billancourt","id":660},{"lat":"48.8365078","lon":"2.2524132","name":"Henri Martin","address":"2 rue Henri Martin","city":"Boulogne-Billancourt","id":661},{"lat":"48.836581","lon":"2.239424","name":"Gallieni","address":"114 rue Gallieni","city":"Boulogne-Billancourt","id":662},{"lat":"48.831826","lon":"2.254098","name":"R\u00e9publique","address":"24 Boulevard de la R\u00e9publique","city":"Boulogne-Billancourt","id":663},{"lat":"48.82851","lon":"2.246519","name":"Jean Jaur\u00e8s","address":"245 boulevard Jean Jaur\u00e8s","city":"Boulogne-Billancourt","id":664},{"lat":"48.8261171","lon":"2.2407124","name":"Marcel Bontemps","address":"30 rue Marcel Bontemps","city":"Boulogne-Billancourt","id":665},{"lat":"48.83162","lon":"2.230167","name":"S\u00e8vres","address":"80 rue de S\u00e8vres","city":"Boulogne-Billancourt","id":666},{"lat":"48.8388074","lon":"2.2505008","name":"Reine","address":"12 bis Route de la Reine","city":"Boulogne-Billancourt","id":667},{"lat":"48.8281027","lon":"2.2422542","name":"Meudon","address":"40 rue de Meudon","city":"Boulogne-Billancourt","id":668},{"lat":"48.83545","lon":"2.225633","name":"Alphonse Le Gallo","address":"35 quai Alphonse Le Gallo","city":"Boulogne-Billancourt","id":669},{"lat":"48.7772202","lon":"2.3226319","name":"Carnot","address":"33 boulevard Carnot","city":"Bourg-la-Reine","id":670},{"lat":"48.76739","lon":"2.255521","name":"Jean Jaur\u00e8s","address":"280 avenue Jean Jaur\u00e8s","city":"Ch\u00e2tenay-Malabry","id":671},{"lat":"48.76587","lon":"2.290613","name":"Sully Prudhomme","address":"33 Avenue Sully Prudhomme","city":"Ch\u00e2tenay-Malabry","id":672},{"lat":"48.7622887","lon":"2.2838864","name":"Division Leclerc","address":"81 Avenue de la Division Leclerc","city":"Ch\u00e2tenay-Malabry","id":673},{"lat":"48.7652296","lon":"2.2723341","name":"Roger Salengro","address":"143 avenue Roger Salengro","city":"Ch\u00e2tenay-Malabry","id":674},{"lat":"48.768495","lon":"2.250599","name":"Cyrano de Bergerac","address":"6 Place Cyrano de Bergerac","city":"Ch\u00e2tenay-Malabry","id":675},{"lat":"48.8111362","lon":"2.298583","name":"Stalingrad","address":"5 boulevard de Stalingrad","city":"Ch\u00e2tillon","id":676},{"lat":"48.8064005","lon":"2.2982685","name":"R\u00e9publique","address":"140 Avenue de la R\u00e9publique","city":"Ch\u00e2tillon","id":677},{"lat":"48.8097437","lon":"2.2827504","name":"Vanves","address":"98 Boulevard de Vanves","city":"Ch\u00e2tillon","id":678},{"lat":"48.8048765","lon":"2.2898962","name":"Paris","address":"21 avenue de Paris","city":"Ch\u00e2tillon","id":679},{"lat":"48.798768","lon":"2.294377","name":"Libert\u00e9","address":"100 boulevard de la LIbert\u00e9","city":"Ch\u00e2tillon","id":680},{"lat":"48.7991859","lon":"2.2846898","name":"Division Leclerc","address":"12 Avenue de la Division Leclerc","city":"Ch\u00e2tillon","id":681},{"lat":"48.79988","lon":"2.281576","name":"Verdun","address":"76 avenue de Verdun","city":"Ch\u00e2tillon","id":682},{"lat":"48.8038815","lon":"2.1883009","name":"Anatole France","address":"28 Rue Anatole France","city":"Chaville","id":683},{"lat":"48.80551","lon":"2.184925","name":"Pav\u00e9 des Gardes","address":"33 route du Pav\u00e9 des Gardes","city":"Chaville","id":684},{"lat":"48.8149125","lon":"2.1935315","name":"Roger Salengro","address":"705 Avenue Roger Salengro","city":"Chaville","id":685},{"lat":"48.804098","lon":"2.2673976","name":"Victor Hugo","address":"40 Avenue Victor Hugo","city":"Clamart","id":686},{"lat":"48.8080853","lon":"2.2679023","name":"Jean Jaur\u00e8s","address":"137 avenue Jean Jaur\u00e8s","city":"Clamart","id":687},{"lat":"48.8136037","lon":"2.2719303","name":"Jean Jaur\u00e8s","address":"255 Avenue Jean Jaur\u00e8s","city":"Clamart","id":688},{"lat":"48.813219","lon":"2.258785","name":"Verdun","address":"1 rue de Verdun","city":"Clamart","id":689},{"lat":"48.80476","lon":"2.260038","name":"Paul Vaillant Couturier","address":"68 rue Paul Vaillant Couturier","city":"Clamart","id":690},{"lat":"48.7905884","lon":"2.2639525","name":"De Gaulle","address":"118 avenue du G\u00e9n\u00e9ral De Gaulle","city":"Clamart","id":691},{"lat":"48.7870782","lon":"2.255763","name":"De Gaulle","address":"233 avenue G\u00e9n\u00e9ral De Gaulle","city":"Clamart","id":692},{"lat":"48.78123","lon":"2.238153","name":"R\u00e9publique","address":"2 avenue de la R\u00e9publique","city":"Clamart","id":693},{"lat":"48.78468","lon":"2.237137","name":"Porte de Trivaux","address":"130 rue de la Porte de Trivaux","city":"Clamart","id":694},{"lat":"48.7813871","lon":"2.2271271","name":"Bourcilli\u00e8re","address":"137 rue de la Bourcilli\u00e8re","city":"Clamart","id":695},{"lat":"48.7990591","lon":"2.2625392","name":"Ferrari","address":"1 Place Ferrari","city":"Clamart","id":696},{"lat":"48.90958","lon":"2.308762","name":"Claude Debussy","address":"7 avenue Claude Debussy","city":"Clichy-la-garenne","id":697},{"lat":"48.9000116","lon":"2.3079766","name":"Martre","address":"41 rue Martre","city":"Clichy-la-garenne","id":698},{"lat":"48.9059638","lon":"2.3020879","name":"Jean Jaure\u0300s","address":"122 boulevard Jean Jaure\u0300s","city":"Clichy-la-garenne","id":699},{"lat":"48.9022951","lon":"2.3178343","name":"Victor Hugo","address":"123 boulevard Victor Hugo","city":"Clichy-la-garenne","id":700},{"lat":"48.9219814","lon":"2.2550527","name":"Mar\u00e9chal Joffre","address":"30 rue du Mar\u00e9chal Joffre","city":"Colombes","id":701},{"lat":"48.93164","lon":"2.260197","name":"Finlande","address":"1 place de Finlande","city":"Colombes","id":702},{"lat":"48.93237","lon":"2.270769","name":"Jules Michelet","address":"77 rue Jules Michelet","city":"Colombes","id":703},{"lat":"48.9246525","lon":"2.259313","name":"M\u00e9nelotte","address":"8 avenue M\u00e9nelotte","city":"Colombes","id":704},{"lat":"48.92257","lon":"2.25258","name":"Henri Barbusse","address":"16 Avenue Henri Barbusse","city":"Colombes","id":705},{"lat":"48.9236174","lon":"2.2483611","name":"Gounod","address":"1 Rue Gounod","city":"Colombes","id":706},{"lat":"48.9278206","lon":"2.2530496","name":"Audra","address":"7 Avenue Audra","city":"Colombes","id":707},{"lat":"48.92701","lon":"2.2457526","name":"Europe","address":"5 avenue de l'Europe","city":"Colombes","id":708},{"lat":"48.9236342","lon":"2.2368586","name":"Renouillers","address":"183 Rue des Renouillers","city":"Colombes","id":709},{"lat":"48.9108414","lon":"2.2356811","name":"Estienne d'Orves","address":"348 rue d'Estienne d'Orves","city":"Colombes","id":710},{"lat":"48.9172575","lon":"2.2365491","name":"Gabriel P\u00e9ri","address":"335 rue Gabriel P\u00e9ri","city":"Colombes","id":711},{"lat":"48.914886","lon":"2.2535759","name":"F\u00e9lix Faure","address":"7 rue F\u00e9lix Faure","city":"Colombes","id":712},{"lat":"48.9201379","lon":"2.2271027","name":"Seine","address":"52 rue de Seine","city":"Colombes","id":713},{"lat":"48.9151379","lon":"2.2284904","name":"Charles de Gaulle","address":"156 Boulevard Charles de Gaulle","city":"Colombes","id":714},{"lat":"48.9095967","lon":"2.2387915","name":"Pierre Brossolette","address":"42 rue Pierre Brossolette","city":"Colombes","id":715},{"lat":"48.92087","lon":"2.264111","name":"Victor Hugo","address":"42 Rue Victor Hugo","city":"Colombes","id":716},{"lat":"48.93586","lon":"2.257037","name":"Valmy","address":"160 Boulevard de Valmy","city":"Colombes","id":717},{"lat":"48.92648","lon":"2.234716","name":"Parc Lagrav\u00e8re","address":"1 all\u00e9e Parc Lagrav\u00e8re","city":"Colombes","id":718},{"lat":"48.8983625","lon":"2.2475158","name":"S\u00e9bastopol","address":"4 Rue S\u00e9bastopol","city":"Courbevoie","id":719},{"lat":"48.897827","lon":"2.23817","name":"Arche","address":"49 avenue de l'Arche","city":"Courbevoie","id":720},{"lat":"48.90076","lon":"2.261656","name":"Paix","address":"2 Boulevard de la Paix","city":"Courbevoie","id":721},{"lat":"48.8963773","lon":"2.256579","name":"H\u00e9rold","address":"6 Place H\u00e9rold","city":"Courbevoie","id":722},{"lat":"48.7906824","lon":"2.28727","name":"Jean Jaur\u00e8s","address":"3 rue Jean Jaur\u00e8s","city":"Fontenay-aux-Roses","id":723},{"lat":"48.78798","lon":"2.29074","name":"Robert Marchand","address":"32 rue Robert Marchand","city":"Fontenay-aux-Roses","id":724},{"lat":"48.795005","lon":"2.274407","name":"Division Leclerc","address":"31 avenue de la Division Leclerc","city":"Fontenay-aux-Roses","id":725},{"lat":"48.794247","lon":"2.297986","name":"Marx Dormoy","address":"71 rue Marx Dormoy","city":"Fontenay-aux-Roses","id":726},{"lat":"48.7835391","lon":"2.2830741","name":"Paul Langevin","address":"70 Avenue Paul Langevin","city":"Fontenay-aux-Roses","id":727},{"lat":"48.78919","lon":"2.293033","name":"Lombard","address":"20 Avenue Lombard","city":"Fontenay-aux-Roses","id":728},{"lat":"48.8386536","lon":"2.18698287","name":"De Gaulle","address":"168 boulevard du G\u00e9n\u00e9ral de Gaulle","city":"Garches","id":729},{"lat":"48.8519609","lon":"2.2044093","name":"Buzenval","address":"111 rue Buzenval","city":"Garches","id":730},{"lat":"48.90628","lon":"2.249208","name":"R\u00e9publique","address":"52 Boulevard de la R\u00e9publique","city":"La Garenne-Colombes","id":731},{"lat":"48.9086393","lon":"2.2374151","name":"National","address":"90 boulevard National","city":"La Garenne-Colombes","id":732},{"lat":"48.91354","lon":"2.25703","name":"Transvaal","address":"3 Rue du Transvaal","city":"La Garenne-Colombes","id":733},{"lat":"48.9047803","lon":"2.2558349","name":"Colombes","address":"126 rue de Colombes","city":"La Garenne-Colombes","id":734},{"lat":"48.90347","lon":"2.239274","name":"National","address":"31 boulevard National","city":"La Garenne-Colombes","id":735},{"lat":"48.90387","lon":"2.230934","name":"Verdun","address":"41 avenue de Verdun","city":"La Garenne-Colombes","id":736},{"lat":"48.941256","lon":"2.3041498","name":"Recoud\u00e9s","address":"1 all\u00e9e des recoud\u00e9s","city":"Gennevilliers","id":737},{"lat":"48.93025","lon":"2.301087","name":"Cam\u00e9linat","address":"66 Boulevard Cam\u00e9linat","city":"Gennevilliers","id":738},{"lat":"48.93368","lon":"2.306482","name":"De Gaulle","address":"23 avenue du G\u00e9n\u00e9ral de Gaulle","city":"Gennevilliers","id":739},{"lat":"48.9242205","lon":"2.2942668","name":"Gabriel P\u00e9ri","address":"169 avenue Gabriel P\u00e9ri","city":"Gennevilliers","id":740},{"lat":"48.9200472","lon":"2.2971486","name":"R\u00e9publique","address":"16 avenue de la r\u00e9publique","city":"Gennevilliers","id":741},{"lat":"48.91757","lon":"2.307151","name":"Georges Corete","address":"1 Rue Georges Corete","city":"Gennevilliers","id":742},{"lat":"48.91985","lon":"2.314065","name":"Gr\u00e9sillons","address":"215 Avenue des Gr\u00e9sillons","city":"Gennevilliers","id":743},{"lat":"48.9226538","lon":"2.320639","name":"Louise Michel","address":"36 Boulevard Louise Michel","city":"Gennevilliers","id":744},{"lat":"48.9269437","lon":"2.3143339","name":"Louis Roche","address":"125 Avenue Louis Roche","city":"Gennevilliers","id":745},{"lat":"48.8294072","lon":"2.2644545","name":"Camille Desmoulins","address":"31 Rue Camille Desmoulins","city":"Issy-les-Moulineaux","id":746},{"lat":"48.8271","lon":"2.27659","name":"Vaudetard","address":"7 rue Vaudetard","city":"Issy-les-Moulineaux","id":747},{"lat":"48.824901","lon":"2.2752102","name":"Leclerc","address":"46 Rue du G\u00e9n\u00e9ral Leclerc","city":"Issy-les-Moulineaux","id":748},{"lat":"48.8189324","lon":"2.258027","name":"Rodin","address":"66 boulevard Rodin","city":"Issy-les-Moulineaux","id":749},{"lat":"48.81855","lon":"2.25291","name":"Verdun","address":"135 avenue de Verdun","city":"Issy-les-Moulineaux","id":750},{"lat":"48.8284904","lon":"2.2748136","name":"Guynemer","address":"50 Rue Guynemer","city":"Issy-les-Moulineaux","id":751},{"lat":"48.824941","lon":"2.2680704","name":"Gallieni","address":"59 boulevard Gallieni","city":"Issy-les-Moulineaux","id":752},{"lat":"48.8226736","lon":"2.2498224","name":"\u00celes","address":"21 Boulevard des \u00celes","city":"Issy-les-Moulineaux","id":753},{"lat":"48.8215502","lon":"2.2613183","name":"Garibaldi","address":"18 Boulevard Garibaldi","city":"Issy-les-Moulineaux","id":754},{"lat":"48.81731","lon":"2.27009","name":"Promenade du Verger","address":"166 promenade du Verger","city":"Issy-les-Moulineaux","id":755},{"lat":"48.8229419","lon":"2.2755104","name":"Jean Jaur\u00e8s","address":"22 Avenue Jean Jaur\u00e8s","city":"Issy-les-Moulineaux","id":756},{"lat":"48.8295855","lon":"2.2836035","name":"Ernest Renan","address":"9 rue Ernest Renan","city":"Issy-les-Moulineaux","id":757},{"lat":"48.8310957","lon":"2.2665501","name":"Joseph Frantz","address":"46 Rue Joseph Frantz","city":"Issy-les-Moulineaux","id":758},{"lat":"48.8272976","lon":"2.2678365","name":"Gallieni","address":"27 boulevard Gallieni","city":"Issy-les-Moulineaux","id":759},{"lat":"48.8238961","lon":"2.2621859","name":"Ren\u00e9 Jacques","address":"1 Rue Ren\u00e9 Jacques","city":"Issy-les-Moulineaux","id":760},{"lat":"48.8326967","lon":"2.2682505","name":"Bara","address":"28 Rue Bara","city":"Issy-les-Moulineaux","id":761},{"lat":"48.83073","lon":"2.278246","name":"Guynemer","address":"16 rue Guynemer","city":"Issy-les-Moulineaux","id":762},{"lat":"48.821914","lon":"2.252089","name":"Champ Chardon","address":"44 Rue de Champ Chardon","city":"Issy-les-Moulineaux","id":763},{"lat":"48.8187533","lon":"2.2778594","name":"De Gaulle","address":"88 avenue du G\u00e9n\u00e9ral de Gaulle","city":"Issy-les-Moulineaux","id":764},{"lat":"48.81961","lon":"2.265943","name":"Bachaga Boualam","address":"1 place du Bachaga Boualam","city":"Issy-les-Moulineaux","id":765},{"lat":"48.8167","lon":"2.260423","name":"\u00c9galit\u00e9","address":"57 Rue de l'\u00c9galit\u00e9","city":"Issy-les-Moulineaux","id":766},{"lat":"48.82027","lon":"2.301874","name":"Wilson","address":"2 avenue du Pr\u00e9sident Wilson","city":"Malakoff","id":767},{"lat":"48.8192396","lon":"2.3040697","name":"Gabriel P\u00e9ri","address":"120 boulevard Gabriel P\u00e9ri","city":"Malakoff","id":768},{"lat":"48.8142269","lon":"2.2878426","name":"Stalingrad","address":"27 boulevard de Stalingrad","city":"Malakoff","id":769},{"lat":"48.82317","lon":"2.29935","name":"Charles de Gaulle","address":"47 Boulevard Charles de Gaulle","city":"Malakoff","id":770},{"lat":"48.8137426","lon":"2.2959516","name":"Paul Vaillant Couturier","address":"49 Rue Paul Vaillant Couturier","city":"Malakoff","id":771},{"lat":"48.8139","lon":"2.302489","name":"Pierre Brossolette","address":"192 avenue Pierre Brossolette","city":"Malakoff","id":772},{"lat":"48.8242495","lon":"2.3038947","name":"Legrand","address":"1 Rue Legrand","city":"Malakoff","id":773},{"lat":"48.8180219","lon":"2.2918859","name":"Arblade","address":"9 avenue Arblade","city":"Malakoff","id":774},{"lat":"48.8118151","lon":"2.2811943","name":"Malleret Joinville","address":"2 Rue du G\u00e9n\u00e9ral Malleret Joinville","city":"Malakoff","id":775},{"lat":"48.8124566","lon":"2.2378816","name":"Ponceau","address":"2 rue Ponceau","city":"Meudon","id":776},{"lat":"48.8169462","lon":"2.2480148","name":"Paris","address":"6 rue de Paris","city":"Meudon","id":777},{"lat":"48.82148","lon":"2.22769","name":"Marcel All\u00e9got","address":"12 rue Marcel All\u00e9got","city":"Meudon","id":778},{"lat":"48.8204172","lon":"2.23413","name":"Verrerie","address":"10 rue de la Verrerie","city":"Meudon","id":779},{"lat":"48.8077664","lon":"2.2350182","name":"Terre Neuve","address":"3 bis rue Terre Neuve","city":"Meudon","id":780},{"lat":"48.7886841","lon":"2.2114032","name":"Jeanne Braconnier","address":"3 rue Jeanne Braconnier","city":"Meudon-la-For\u00eat","id":781},{"lat":"48.788083","lon":"2.216266","name":"Mar\u00e9chal Juin","address":"18 avenue du Mar\u00e9chal Juin","city":"Meudon-la-For\u00eat","id":782},{"lat":"48.787686","lon":"2.2277686","name":"De Gaulle","address":"19 avenue du G\u00e9n\u00e9ral de Gaulle","city":"Meudon","id":783},{"lat":"48.81637","lon":"2.312146","name":"Jean Jaur\u00e8s","address":"51 avenue Jean Jaur\u00e8s","city":"Montrouge","id":784},{"lat":"48.81737","lon":"2.327974","name":"Barb\u00e8s","address":"24 Rue Barb\u00e8s","city":"Montrouge","id":785},{"lat":"48.81909","lon":"2.319941","name":"R\u00e9publique","address":"43 avenue de la R\u00e9publique","city":"Montrouge","id":786},{"lat":"48.8115861","lon":"2.3158755","name":"Verdun","address":"6 avenue de Verdun","city":"Montrouge","id":787},{"lat":"48.89709","lon":"2.220012","name":"Pesaro","address":"2 boulevard Pesaro","city":"Nanterre","id":788},{"lat":"48.8956","lon":"2.224588","name":"P\u00e9saro","address":"22 Boulevard de P\u00e9saro","city":"Nanterre","id":789},{"lat":"48.89231","lon":"2.214089","name":"Pablo Picasso","address":"20 Avenue Pablo Picasso","city":"Nanterre","id":790},{"lat":"48.886018","lon":"2.215877","name":"Georges Cl\u00e9menceau","address":"205 Avenue Georges Cl\u00e9menceau","city":"Nanterre","id":791},{"lat":"48.88811","lon":"2.191361","name":"Lenine","address":"65 Avenue Lenine","city":"Nanterre","id":792},{"lat":"48.88807","lon":"2.199446","name":"Gambetta","address":"20 Rue Gambetta","city":"Nanterre","id":793},{"lat":"48.8917117","lon":"2.1923088","name":"Couchant","address":"3 boulevard du Couchant","city":"Nanterre","id":794},{"lat":"48.89591","lon":"2.198215","name":"Gare","address":"9 Rue de la Gare","city":"Nanterre","id":795},{"lat":"48.8926309","lon":"2.2063258","name":"8 mai 1945","address":"109 Rue du 8 mai 1945","city":"Nanterre","id":796},{"lat":"48.91221","lon":"2.223302","name":"R\u00e9publique","address":"403 Avenue de la R\u00e9publique","city":"Nanterre","id":797},{"lat":"48.8998","lon":"2.214586","name":"Gascogne","address":"1 all\u00e9e de Gascogne","city":"Nanterre","id":798},{"lat":"48.8886703","lon":"2.213053","name":"Champs Pierreux","address":"29 avenue des Champs Pierreux","city":"Nanterre","id":799},{"lat":"48.8867168","lon":"2.2192059","name":"Ecoles","address":"5 rue des Ecoles","city":"Nanterre","id":800},{"lat":"48.8829721","lon":"2.2040354","name":"Paul Vaillant Couturier","address":"94 Rue Paul Vaillant Couturier","city":"Nanterre","id":801},{"lat":"48.8856","lon":"2.196418","name":"Mar\u00e9chal Joffre","address":"28 Avenue du Mar\u00e9chal Joffre","city":"Nanterre","id":802},{"lat":"48.8884735","lon":"2.1843459","name":"National","address":"134 boulevard National","city":"Nanterre","id":803},{"lat":"48.8906294","lon":"2.1983695","name":"Waldeck Rochet","address":"8 rue Waldeck Rochet","city":"Nanterre","id":804},{"lat":"48.89586","lon":"2.216845","name":"Pablo Neruda","address":"6 Rue Pablo Neruda","city":"Nanterre","id":805},{"lat":"48.8953323","lon":"2.1910555","name":"Jules Quentin","address":"33 Avenue Jules Quentin","city":"Nanterre","id":806},{"lat":"48.899865","lon":"2.200758","name":"Hoche","address":"1 avenue Hoche","city":"Nanterre","id":807},{"lat":"48.8951698","lon":"2.1743332","name":"Lavoisier","address":"14 rue Lavoisier","city":"Nanterre","id":808},{"lat":"48.89334","lon":"2.198058","name":"Rigault","address":"1 Rue Rigault","city":"Nanterre","id":809},{"lat":"48.89184","lon":"2.22834","name":"Aim\u00e9 C\u00e9saire","address":"5 Boulevard Aim\u00e9 C\u00e9saire","city":"Nanterre","id":810},{"lat":"48.8854172","lon":"2.2116588","name":"Suresnes","address":"19 rue de Suresnes","city":"Nanterre","id":811},{"lat":"48.8998826","lon":"2.2242026","name":"Lens","address":"13 Rue de Lens","city":"Nanterre","id":812},{"lat":"48.8963559","lon":"2.2076635","name":"Vincent Raspail","address":"5 boulevard Vincent Raspail","city":"Nanterre","id":813},{"lat":"48.89383","lon":"2.185795","name":"Guilleraies","address":"5 avenue des Guilleraies","city":"Nanterre","id":814},{"lat":"48.88069","lon":"2.21063","name":"Luaps","address":"17 Rue des Luaps Prolong\u00e9e","city":"Nanterre","id":815},{"lat":"48.89406","lon":"2.22547","name":"Salvador Allende","address":"123 Rue Salvador Allende","city":"Nanterre","id":816},{"lat":"48.9088989","lon":"2.215978","name":"R\u00e9publique","address":"326 Avenue de la R\u00e9publique","city":"Nanterre","id":817},{"lat":"48.898941","lon":"2.1927044","name":"Union","address":"13 Rue de l'Union","city":"Nanterre","id":818},{"lat":"48.89605","lon":"2.214383","name":"\u00c9mile Zola","address":"61 Boulevard \u00c9mile Zola","city":"Nanterre","id":819},{"lat":"48.91278","lon":"2.215178","name":"Peupliers","address":"13 Rue des Peupliers","city":"Nanterre","id":820},{"lat":"48.8908845","lon":"2.270197","name":"Bineau","address":"161 boulevard Bineau","city":"Neuilly-sur-Seine","id":821},{"lat":"48.8790938","lon":"2.2703186","name":"Maurice Barres","address":"64 Boulevard Maurice Barres","city":"Neuilly sur Seine","id":822},{"lat":"48.78181","lon":"2.263774","name":"Charles-de-Gaulle","address":"6 avenue Charles-de-Gaulle","city":"Plessis-Robinson","id":823},{"lat":"48.78378","lon":"2.271527","name":"Chauss\u00e9e de l'Etang","address":"109 chauss\u00e9e de l'Etang","city":"Plessis-Robinson","id":824},{"lat":"48.7800052","lon":"2.2594914","name":"Aristide Briand","address":"51 avenue Aristide Briand","city":"Plessis-Robinson","id":825},{"lat":"48.77763","lon":"2.246168","name":"Galil\u00e9e","address":"16 avenue Galil\u00e9e","city":"Plessis-Robinson","id":826},{"lat":"48.8807168","lon":"2.2450631","name":"Dion Bouton","address":"30 Quai de Dion Bouton","city":"Puteaux","id":827},{"lat":"48.8830992","lon":"2.2330423","name":"Fernand Pelloutier","address":"2 Rue Fernand Pelloutier","city":"Puteaux","id":828},{"lat":"48.8860877","lon":"2.2478443","name":"Arago","address":"52 rue Arago","city":"Puteaux","id":829},{"lat":"48.88735","lon":"2.231977","name":"De Gaulle","address":"70 avenue du G\u00e9n\u00e9ral de Gaulle","city":"Puteaux","id":830},{"lat":"48.8761876","lon":"2.2361346","name":"Francis de Pressens\u00e9","address":"12 Rue Francis de Pressens\u00e9","city":"Puteaux","id":831},{"lat":"48.8876242","lon":"2.1693918","name":"\u00c9douard Belin","address":"8 avenue \u00c9douard Belin","city":"Rueil-Malmaison","id":832},{"lat":"48.8855277","lon":"2.1719487","name":"Albert 1er","address":"98 avenue Albert 1er","city":"Rueil-Malmaison","id":833},{"lat":"48.88034","lon":"2.180216","name":"Albert 1er","address":"2 Avenue Albert 1er","city":"Rueil-Malmaison","id":834},{"lat":"48.87681","lon":"2.173765","name":"Bois Pr\u00e9au","address":"1 avenue de Bois Pr\u00e9au","city":"Rueil-Malmaison","id":835},{"lat":"48.87339","lon":"2.182237","name":"Richelieu","address":"3 place Richelieu","city":"Rueil-Malmaison","id":836},{"lat":"48.8893048","lon":"2.1678526","name":"Auguste Perret","address":"4 Rue Auguste Perret","city":"Rueil-Malmaison","id":837},{"lat":"48.8839089","lon":"2.1919207","name":"Paul Doumer","address":"3 avenue Paul Doumer","city":"Rueil-Malmaison","id":838},{"lat":"48.87265","lon":"2.19527","name":"Bons Raisins","address":"52 Rue des Bons Raisins","city":"Rueil-Malmaison","id":839},{"lat":"48.8650741","lon":"2.2053436","name":"18 Juin 1940","address":"175 avenue du 18 Juin 1940","city":"Rueil-Malmaison","id":840},{"lat":"48.8577","lon":"2.1934","name":"De Montbrison","address":"188 Rue du Lieutenant-Colonel de Montbrison","city":"Rueil-Malmaison","id":841},{"lat":"48.87593","lon":"2.169949","name":"Napol\u00e9on Bonaparte","address":"260 avenue Napol\u00e9on Bonaparte","city":"Rueil-Malmaison","id":842},{"lat":"48.8926928","lon":"2.1725973","name":"Henri Sainte-Claire D\u00e9ville","address":"12 rue Henri Sainte-Claire D\u00e9ville","city":"Rueil-Malmaison","id":843},{"lat":"48.8871","lon":"2.181057","name":"Colmar","address":"17 Avenue de Colmar","city":"Rueil-Malmaison","id":844},{"lat":"48.8832165","lon":"2.1713037","name":"Lavoisier","address":"3 avenue Lavoisier","city":"Rueil-Malmaison","id":845},{"lat":"48.876218","lon":"2.187679","name":"Charles Drot","address":"21 Rue Charles Drot","city":"Rueil-Malmaison","id":846},{"lat":"48.87651","lon":"2.200921","name":"Lieutenant Colonel Driant","address":"11 Rue du Lieutenant Colonel Driant","city":"Rueil-Malmaison","id":847},{"lat":"48.8713591","lon":"2.20283","name":"8 mai 1945","address":"2 bis Place du 8 mai 1945","city":"Rueil-Malmaison","id":848},{"lat":"48.86324","lon":"2.181831","name":"Empereur","address":"174 route de l'Empereur","city":"Rueil-Malmaison","id":849},{"lat":"48.8680715","lon":"2.1930392","name":"18 juin 1940","address":"63 avenue du 18 juin 1940","city":"Rueil-Malmaison","id":850},{"lat":"48.84203","lon":"2.203811","name":"Pasteur","address":"18 rue Pasteur","city":"Saint-Cloud","id":851},{"lat":"48.84652","lon":"2.216632","name":"Armengaud","address":"12 rue Armengaud","city":"Saint-Cloud","id":852},{"lat":"48.8569103","lon":"2.2152544","name":"Mont Val\u00e9rien","address":"38 ter rue du Mont Val\u00e9rien","city":"Saint-Cloud","id":853},{"lat":"48.78391","lon":"2.292272","name":"Paul Langevin","address":"3 avenue Paul Langevin","city":"Sceaux","id":854},{"lat":"48.7793414","lon":"2.2814988","name":"Gare","address":"3 Avenue de la Gare","city":"Sceaux","id":855},{"lat":"48.7771124","lon":"2.2965901","name":"Franklin Roosevelt","address":"60 Avenue du Pr\u00e9sident Franklin Roosevelt","city":"Sceaux","id":856},{"lat":"48.7842765","lon":"2.3027628","name":"Bagneux","address":"52 Rue de Bagneux","city":"Sceaux","id":857},{"lat":"48.779037","lon":"2.2891934","name":"Houdan","address":"118 rue Houdan","city":"Sceaux","id":858},{"lat":"48.821593","lon":"2.2050638","name":"Grande Rue","address":"123 Grande Rue","city":"S\u00e8vres","id":859},{"lat":"48.8261","lon":"2.20015","name":"Riocreux","address":"1 Rue Riocreux","city":"S\u00e8vres","id":860},{"lat":"48.812502","lon":"2.213332","name":"Wolfenb\u00fcttel","address":"1 Rue de Wolfenb\u00fcttel","city":"S\u00e8vres","id":861},{"lat":"48.82682","lon":"2.22331","name":"Cristallerie","address":"2 Avenue de la Cristallerie","city":"S\u00e8vres","id":862},{"lat":"48.8716626","lon":"2.2213347","name":"Worth","address":"45 rue Worth","city":"Suresnes","id":863},{"lat":"48.87301","lon":"2.232485","name":"Salomon de Rothschild","address":"3 Rue Salomon de Rothschild","city":"Suresnes","id":864},{"lat":"48.871036","lon":"2.2276552","name":"Verdun","address":"15 Rue de Verdun","city":"Suresnes","id":865},{"lat":"48.86847","lon":"2.223116","name":"Henri Sellier","address":"50 Boulevard Henri Sellier","city":"Suresnes","id":866},{"lat":"48.8636819","lon":"2.208944","name":"Jean Jaur\u00e8s","address":"21 avenue Jean Jaur\u00e8s","city":"Suresnes","id":867},{"lat":"48.8741","lon":"2.227249","name":"Carnot","address":"52 Rue Carnot","city":"Suresnes","id":868},{"lat":"48.8755464","lon":"2.2319905","name":"Georges Pompidou","address":"37 avenue Georges Pompidou","city":"Suresnes","id":869},{"lat":"48.8766119","lon":"2.2218839","name":"Huch\u00e9","address":"26 rue Huch\u00e9","city":"Suresnes","id":870},{"lat":"48.8618708","lon":"2.2133061","name":"Tuilerie","address":"33 Rue de la Tuilerie","city":"Suresnes","id":871},{"lat":"48.86322","lon":"2.201247","name":"Stalingrad","address":"11 Place Stalingrad","city":"Suresnes","id":872},{"lat":"48.8683519","lon":"2.2255443","name":"Charles P\u00e9guy","address":"1 rue Charles P\u00e9guy","city":"Suresnes","id":873},{"lat":"48.8699508","lon":"2.218031","name":"Fontaine du Tertre","address":"21 avenue de la Fontaine du Tertre","city":"Suresnes","id":874},{"lat":"48.86121","lon":"2.224382","name":"Marcel Monge","address":"2 Rue Marcel Monge","city":"Suresnes","id":875},{"lat":"48.82097","lon":"2.29165","name":"Ren\u00e9 Sahors","address":"9 rue Ren\u00e9 Sahors","city":"Vanves","id":876},{"lat":"48.82249","lon":"2.284264","name":"Pruvot","address":"7 Rue Pruvot","city":"Vanves","id":877},{"lat":"48.8169686","lon":"2.2810709","name":"Larmeroux","address":"12 rue Larmeroux","city":"Vanves","id":878},{"lat":"48.82338","lon":"2.296546","name":"Jean Bleuzen","address":"77 Rue Jean Bleuzen","city":"Vanves","id":879},{"lat":"48.8258129","lon":"2.2906328","name":"Jean Jaur\u00e8s","address":"101 rue Jean Jaur\u00e8s","city":"Vanves","id":880},{"lat":"48.82101","lon":"2.28876","name":"Antoine Fratacci","address":"34 Rue Antoine Fratacci","city":"Vanves","id":881},{"lat":"48.8479","lon":"2.175519","name":"Victor Pauchet","address":"31 rue du Professeur Victor Pauchet","city":"Vaucresson","id":882},{"lat":"48.826","lon":"2.18935","name":"Charles de Gaulle","address":"1 place Charles de Gaulle","city":"Ville-d'Avray","id":883},{"lat":"48.81805","lon":"2.164893","name":"Versailles","address":"211 Rue de Versailles","city":"Ville-d'Avray","id":884},{"lat":"48.9354388","lon":"2.3261213","name":"Saint-Exup\u00e9ry","address":"1 all\u00e9e Saint-Exup\u00e9ry","city":"Villeneuve-la-Garenne","id":885},{"lat":"48.9418303","lon":"2.3235384","name":"Pompidou","address":"29 Avenue Georges Pompidou","city":"Villeneuve-la-Garenne","id":886},{"lat":"48.89238","lon":"2.245286","name":"Andr\u00e9 Prothin","address":"12 Avenue Andr\u00e9 Prothin","city":"Courbevoie","id":887},{"lat":"48.90341","lon":"2.368184","name":"Victor Hugo","address":"45 avenue Victor Hugo","city":"Aubervilliers","id":888},{"lat":"48.9336579","lon":"2.499411","name":"F\u00e9lix Faure","address":"22 boulevard F\u00e9lix Faure","city":"Aulnay-sous-bois","id":889},{"lat":"48.9302366","lon":"2.4945429","name":"Isidore Nerat","address":"6 rue Isidore Nerat","city":"Aulnay-sous-bois","id":890},{"lat":"48.9410997","lon":"2.4996237","name":"Sevran","address":"1 rue de Sevran","city":"Aulnay-sous-bois","id":891},{"lat":"48.9463868","lon":"2.5093616","name":"8 mai","address":"9 rue du 8 mai","city":"Aulnay-sous-bois","id":892},{"lat":"48.9305794","lon":"2.5063639","name":"Arthur Chevalier","address":"7 rue Arthur Chevalier","city":"Aulnay-sous-bois","id":893},{"lat":"48.9481881","lon":"2.4871863","name":"Joseph Marie Jacquard","address":"2 rue Joseph Marie Jacquard","city":"Aulnay-sous-bois","id":894},{"lat":"48.9592819","lon":"2.4956263","name":"Maryse Basti\u00e9","address":"1 rue Maryse Basti\u00e9","city":"Aulnay-sous-bois","id":895},{"lat":"48.87608","lon":"2.418952","name":"Pasteur","address":"124 avenue Pasteur","city":"Bagnolet","id":896},{"lat":"48.8777608","lon":"2.4267206","name":"Sadi Carnot","address":"213 Rue Sadi Carnot","city":"Bagnolet","id":897},{"lat":"48.86504","lon":"2.417886","name":"De Gaulle","address":"33 avenue du G\u00e9n\u00e9ral de Gaulle","city":"Bagnolet","id":898},{"lat":"48.8611263","lon":"2.4181508","name":"R\u00e9publique","address":"58 avenue de la R\u00e9publique","city":"Bagnolet","id":899},{"lat":"48.87215","lon":"2.43015","name":"Stalingrad","address":"49 avenue de Stalingrad","city":"Bagnolet","id":900},{"lat":"48.85764","lon":"2.415732","name":"Edouard Vaillant","address":"60 rue Edouard Vaillant","city":"Bagnolet","id":901},{"lat":"48.9376981","lon":"2.462453","name":"Claude Terrasse","address":"1 rue Claude Terrasse","city":"Le Blanc-Mesnil","id":902},{"lat":"48.9311","lon":"2.424912","name":"Chevalier de la Barre","address":"7 Rue du Chevalier de la Barre","city":"Le Bourget","id":903},{"lat":"48.9350451","lon":"2.424831","name":"Anizan Cavillon","address":"10 Rue Anizan Cavillon","city":"Le Bourget","id":904},{"lat":"48.938103","lon":"2.4286035","name":"John Fitzgerald Kennedy","address":"2 Avenue John Fitzgerald Kennedy","city":"Le Bourget","id":905},{"lat":"48.93211","lon":"2.426913","name":"\u00c9lise Deroche","address":"10 avenue \u00c9lise Deroche","city":"Le Bourget","id":906},{"lat":"48.91034","lon":"2.5465","name":"11 Novembre 1918","address":"1 place du 11 Novembre 1918","city":"Clichy-sous-Bois","id":907},{"lat":"48.91845","lon":"2.418932","name":"Saint Stenay","address":"29 rue Saint Stenay","city":"Drancy","id":908},{"lat":"48.9222845","lon":"2.4476628","name":"Couturier","address":"24 boulevard Paul Vaillant Couturier","city":"Drancy","id":909},{"lat":"48.9258333","lon":"2.4403004","name":"Sadi Carnot","address":"116 rue Sadi Carnot","city":"Drancy","id":910},{"lat":"48.93327","lon":"2.455181","name":"Lat\u00e9ral","address":"20 Chemin Lat\u00e9ral","city":"Drancy","id":911},{"lat":"48.92155","lon":"2.445802","name":"Marcelin Berthelot","address":"2 Rue Marcelin Berthelot","city":"Drancy","id":912},{"lat":"48.919047","lon":"2.453108","name":"Jean Jaur\u00e8s","address":"105 Avenue Jean Jaur\u00e8s","city":"Drancy","id":913},{"lat":"48.9177255","lon":"2.4464355","name":"Marcelin Berthelot","address":"73 rue Marcelin Berthelot","city":"Drancy","id":914},{"lat":"48.9207972","lon":"2.4559699","name":"Auguste Blanqui","address":"22 Rue Auguste Blanqui","city":"Drancy","id":915},{"lat":"48.92347","lon":"2.460301","name":"Henri Barbusse","address":"236 Avenue Henri Barbusse","city":"Drancy","id":916},{"lat":"48.9166381","lon":"2.4362063","name":"Roger Salengro","address":"97 Rue Roger Salengro","city":"Drancy","id":917},{"lat":"48.9241686","lon":"2.4358951","name":"Nouvelle","address":"7 rue Nouvelle","city":"Drancy","id":918},{"lat":"48.9216032","lon":"2.4411713","name":"Roger Salengro","address":"3 rue Roger Salengro","city":"Drancy","id":919},{"lat":"48.9196895","lon":"2.4288043","name":"Diderot","address":"125 rue Diderot","city":"Drancy","id":920},{"lat":"48.9578054","lon":"2.3271301","name":"Avenir","address":"1 rue de l'Avenir","city":"\u00c9pinay-sur-Seine","id":921},{"lat":"48.960565","lon":"2.3068329","name":"Fitzelin","address":"64 Rue de Fitzelin","city":"\u00c9pinay-sur-Seine","id":922},{"lat":"48.8793959","lon":"2.4156066","name":"Georges Pompidou","address":"3 Rue Georges Pompidou","city":"Les Lilas","id":923},{"lat":"48.8783253","lon":"2.413255","name":"Bruy\u00e8res","address":"10 Rue des Bruy\u00e8res","city":"Les Lilas","id":924},{"lat":"48.8810551","lon":"2.4223705","name":"L\u00e9on Renault","address":"19 rue L\u00e9on Renault","city":"Les Lilas","id":925},{"lat":"48.9003522","lon":"2.5717728","name":"Leclerc","address":"19 rue du G\u00e9n\u00e9ral Leclerc","city":"Montfermeil","id":926},{"lat":"48.8682727","lon":"2.4328728","name":"De Gaulle","address":"15 place du G\u00e9n\u00e9ral de Gaulle","city":"Montreuil","id":927},{"lat":"48.8732583","lon":"2.4600762","name":"Roches","address":"22 rue des Roches","city":"Montreuil","id":928},{"lat":"48.8622521","lon":"2.4655666","name":"Th\u00e9ophile Sueur","address":"196 boulevard Th\u00e9ophile Sueur","city":"Montreuil","id":929},{"lat":"48.86446","lon":"2.479","name":"Pierre Brossolette","address":"61 rue Pierre Brossolette","city":"Montreuil","id":930},{"lat":"48.8532555","lon":"2.4231379","name":"R\u00e9publique","address":"2 rue de la R\u00e9publique","city":"Montreuil","id":931},{"lat":"48.8579785","lon":"2.4315736","name":"D\u00e9sir\u00e9 Pr\u00e9aux","address":"11 rue D\u00e9sir\u00e9 Pr\u00e9aux","city":"Montreuil","id":932},{"lat":"48.8542461","lon":"2.4312421","name":"Sergent Godefroy","address":"20 bis rue du Sergent Godefroy","city":"Montreuil","id":933},{"lat":"48.8681993","lon":"2.4418694","name":"Victor Beausse","address":"62 rue Victor Beausse","city":"Montreuil","id":934},{"lat":"48.8688933","lon":"2.4524767","name":"Paul Signac","address":"9 Avenue Paul Signac","city":"Montreuil","id":935},{"lat":"48.8601571","lon":"2.4492331","name":"Galil\u00e9e","address":"29 rue Galil\u00e9e","city":"Montreuil","id":936},{"lat":"48.8608217","lon":"2.4580031","name":"Y\u00e9liman\u00e9","address":"1 rue de Y\u00e9liman\u00e9","city":"Montreuil","id":937},{"lat":"48.8618674","lon":"2.5037509","name":"Georges Cl\u00e9menceau","address":"25 avenue Georges Cl\u00e9menceau","city":"Neuilly Plaisance","id":938},{"lat":"48.851574","lon":"2.5139514","name":"Paul C\u00e9zanne","address":"2 rue Paul C\u00e9zanne","city":"Neuilly-Plaisance","id":939},{"lat":"48.8729791","lon":"2.5111812","name":"Stalingrad","address":"1 place Stalingrad","city":"Neuilly-Plaisance","id":940},{"lat":"48.8558528","lon":"2.5112935","name":"Edgard Quinet","address":"46 rue Edgard Quinet","city":"Neuilly Plaisance","id":941},{"lat":"48.8960342","lon":"2.4586124","name":"Marc Sangnier","address":"8 rue Marc Sangnier","city":"Noisy-le-Sec","id":942},{"lat":"48.8898019","lon":"2.453145","name":"Fr\u00e9pillon","address":"1 rue Fr\u00e9pillon","city":"Noisy-le-Sec","id":943},{"lat":"48.8920896","lon":"2.4674469","name":"Victor Hugo","address":"1 avenue Victor Hugo","city":"Noisy-le-Sec","id":944},{"lat":"48.9022488","lon":"2.4676334","name":"Henry Espaullard","address":"1 rue Henry Espaullard","city":"Noisy-le-Sec","id":945},{"lat":"48.890711","lon":"2.4030061","name":"Pr\u00e9 Saint Gervais","address":"1 rue du Pr\u00e9 Saint Gervais","city":"Pantin","id":946},{"lat":"48.8929204","lon":"2.4138507","name":"\u00c9glise","address":"44 Place de l'\u00c9glise","city":"Pantin","id":947},{"lat":"48.9092769","lon":"2.3988432","name":"Cimeti\u00e8re Parisien","address":"34 avenue du Cimeti\u00e8re Parisien","city":"Pantin","id":948},{"lat":"48.8946957","lon":"2.4254593","name":"Anatole France","address":"1 avenue Anatole France","city":"Pantin","id":949},{"lat":"48.9017998","lon":"2.4012521","name":"Cartier Bresson","address":"84 Rue Cartier Bresson","city":"Pantin","id":950},{"lat":"48.8832598","lon":"2.4037001","name":"Andr\u00e9 Joineau","address":"79 rue Andr\u00e9 Joineau","city":"Le Pr\u00e9-Saint-Gervais","id":951},{"lat":"48.87798","lon":"2.44464","name":"Marcel Ethis","address":"15 Rue Marcel Ethis","city":"Romainville","id":952},{"lat":"48.89449","lon":"2.432462","name":"Commune de Paris","address":"100 rue de la Commune de Paris","city":"Romainville","id":953},{"lat":"48.8826947","lon":"2.4435891","name":"Pierre Kerautret","address":"40 avenue Pierre Kerautret","city":"Romainville","id":954},{"lat":"48.8728916","lon":"2.4872191","name":"Claude Pern\u00e8s","address":"1 rue Claude Pern\u00e8s","city":"Rosny-sous-Bois","id":955},{"lat":"48.87052","lon":"2.486372","name":"Jean Jaur\u00e8s","address":"5 avenue Jean Jaur\u00e8s","city":"Rosny-sous-Bois","id":956},{"lat":"48.876218","lon":"2.475338","name":"Rome","address":"8 rue de Rome","city":"Rosny-sous-Bois","id":957},{"lat":"48.88093","lon":"2.472356","name":"Lisbonne","address":"16 rue de Lisbonne","city":"Rosny-sous-Bois","id":958},{"lat":"48.88126","lon":"2.480821","name":"L\u00e9on Blum","address":"10 rue L\u00e9on Blum","city":"Rosny-sous-Bois","id":959},{"lat":"48.8798646","lon":"2.4931178","name":"Variot","address":"40 Rue du docteur Variot","city":"Rosny-sous-Bois","id":960},{"lat":"48.90573","lon":"2.321015","name":"Dulcie September","address":"3 Rue Dulcie September","city":"Saint-Ouen","id":961},{"lat":"48.9072038","lon":"2.3314347","name":"Louis Blanc","address":"35 Rue Louis Blanc","city":"Saint-Ouen","id":962},{"lat":"48.9082928","lon":"2.3400493","name":"Dieumegard","address":"1 Rue Dieumegard","city":"Saint-Ouen","id":963},{"lat":"48.9178855","lon":"2.3323373","name":"Moutier","address":"1 Rue du Moutier","city":"Saint-Ouen","id":964},{"lat":"48.912077","lon":"2.333149","name":"Paul Lafargue","address":"13 Rue Paul Lafargue","city":"Saint-Ouen","id":965},{"lat":"48.901404","lon":"2.327399","name":"Lafontaine","address":"1 rue Lafontaine","city":"Saint-Ouen","id":966},{"lat":"48.9018633","lon":"2.3341342","name":"\u00c9douard Vaillant","address":"28 rue \u00c9douard Vaillant","city":"Saint-Ouen","id":967},{"lat":"48.9034828","lon":"2.3470283","name":"Entrep\u00f4ts","address":"2 Rue des Entrep\u00f4ts","city":"Saint-Ouen","id":968},{"lat":"48.9102315","lon":"2.3441112","name":"Michelet","address":"42 Avenue Michelet","city":"Saint-Ouen","id":969},{"lat":"48.90368","lon":"2.329361","name":"Capitaine Glarner","address":"44 avenue du Capitaine Glarner","city":"Saint-Ouen","id":970},{"lat":"48.81456","lon":"2.413135","name":"Charles de Gaulle","address":"16 Rue Charles de Gaulle","city":"Alfortville","id":971},{"lat":"48.8023529","lon":"2.4253578","name":"Malleret","address":"16 avenue du G\u00e9n\u00e9ral Malleret","city":"Alfortville","id":972},{"lat":"48.77881","lon":"2.424489","name":"Jean-Baptiste Preux","address":"17 all\u00e9e Jean-Baptiste Preux","city":"Alfortville","id":973},{"lat":"48.79611","lon":"2.427023","name":"Verdun","address":"39 Rue de Verdun","city":"Alfortville","id":974},{"lat":"48.78413","lon":"2.427832","name":"Etienne Dolet","address":"174 rue Etienne Dolet","city":"Alfortville","id":975},{"lat":"48.80188","lon":"2.415843","name":"Blanqui","address":"61 quai Blanqui","city":"Alfortville","id":976},{"lat":"48.8056173","lon":"2.4144555","name":"Port \u00e0 l'Anglais","address":"39 rue du Port \u00e0 l'Anglais","city":"Alfortville","id":977},{"lat":"48.7890254","lon":"2.429231","name":"Europe","address":"22 place de l'Europe","city":"Alfortville","id":978},{"lat":"48.80542","lon":"2.421282","name":"Joseph Franceschi","address":"1bis Avenue Joseph Franceschi","city":"Alfortville","id":979},{"lat":"48.8052961","lon":"2.3374929","name":"Fran\u00e7ois Vincent Raspail","address":"32 avenue Fran\u00e7ois Vincent Raspail","city":"Arcueil","id":980},{"lat":"48.7998263","lon":"2.3312852","name":"Emile Raspail","address":"1 rue Emile Raspail","city":"Arcueil","id":981},{"lat":"48.807283","lon":"2.3339929","name":"R\u00e9publique","address":"39 Avenue de la R\u00e9publique","city":"Arcueil","id":982},{"lat":"48.803429","lon":"2.3429726","name":"Marcel Vigneron","address":"30 rue Marcel Vigneron","city":"Arcueil","id":983},{"lat":"48.8042795","lon":"2.3288429","name":"Paul Bert","address":"21 rue Paul Bert","city":"Arcueil","id":984},{"lat":"48.7942674","lon":"2.3345857","name":"Camille Desmoulins","address":"3 Rue Camille Desmoulins","city":"Cachan","id":985},{"lat":"48.79263","lon":"2.337104","name":"Fran\u00e7ois Delage","address":"22 rue Fran\u00e7ois Delage","city":"Cachan","id":986},{"lat":"48.7929328","lon":"2.3217392","name":"Pont Royal","address":"24 Avenue du Pont Royal","city":"Cachan","id":987},{"lat":"48.785493","lon":"2.3288415","name":"Division Leclerc","address":"58 Avenue de la Division Leclerc","city":"Cachan","id":988},{"lat":"48.7985337","lon":"2.3269032","name":"Carnot","address":"36 Avenue Carnot","city":"Cachan","id":989},{"lat":"48.7862756","lon":"2.3403992","name":"Saussaies","address":"36 Rue des Saussaies","city":"Cachan","id":990},{"lat":"48.813519","lon":"2.5091593","name":"Pierre Renaudel","address":"2 rue Pierre Renaudel","city":"Champigny-sur-Marne","id":991},{"lat":"48.810459","lon":"2.54225","name":"Bois l'Abb\u00e9","address":"53 rue du Bois l'Abb\u00e9","city":"Champigny-sur-Marne","id":992},{"lat":"48.8263856","lon":"2.4056374","name":"Paris","address":"147 rue de Paris","city":"Charenton-le-Pont","id":993},{"lat":"48.82214","lon":"2.413997","name":"Jean Jaur\u00e8s","address":"4 Avenue Jean Jaur\u00e8s","city":"Charenton-le-Pont","id":994},{"lat":"48.8232903","lon":"2.3967025","name":"Nouveau Bercy","address":"2 Rue du Nouveau Bercy","city":"Charenton-le-Pont","id":995},{"lat":"48.7896323","lon":"2.4649966","name":"Pierre Brossolette","address":"77 avenue Pierre Brossolette","city":"Cr\u00e9teil","id":996},{"lat":"48.778891","lon":"2.455066","name":"France Libre","address":"38 Avenue de la France Libre","city":"Cr\u00e9teil","id":997},{"lat":"48.766","lon":"2.470911","name":"Claude-Nicolas Ledoux","address":"4 rue Claude-Nicolas Ledoux","city":"Cr\u00e9teil","id":998},{"lat":"48.785363","lon":"2.4528354","name":"Fran\u00e7ois Mauriac","address":"2 avenue Fran\u00e7ois Mauriac","city":"Cr\u00e9teil","id":999},{"lat":"48.7818714","lon":"2.4739148","name":"Leclerc","address":"216 avenue du G\u00e9n\u00e9ral Leclerc","city":"Cr\u00e9teil","id":1000},{"lat":"48.77664","lon":"2.467872","name":"Juliette Savar","address":"102 Rue Juliette Savar","city":"Cr\u00e9teil","id":1001},{"lat":"48.78363","lon":"2.456881","name":"Archives","address":"5 Rue des Archives","city":"Cr\u00e9teil","id":1002},{"lat":"48.787356","lon":"2.446767","name":"De Gaulle","address":"61 avenue du G\u00e9n\u00e9ral De Gaulle","city":"Cr\u00e9teil","id":1003},{"lat":"48.79663","lon":"2.44808","name":"De Gaulle","address":"70 avenue du G\u00e9n\u00e9ral de Gaulle","city":"Cr\u00e9teil","id":1004},{"lat":"48.7784312","lon":"2.4623984","name":"Gabriel Faur\u00e9","address":"18 Rue Gabriel Faur\u00e9","city":"Cr\u00e9teil","id":1005},{"lat":"48.79834","lon":"2.455145","name":"Mar\u00e9chal de Lattre de Tassigny","address":"56 avenue du Mar\u00e9chal de Lattre de Tassigny","city":"Cr\u00e9teil","id":1006},{"lat":"48.7706043","lon":"2.4707901","name":"Cotonou","address":"4 Rue de Cotonou","city":"Cr\u00e9teil","id":1007},{"lat":"48.7913","lon":"2.44625","name":"Mar\u00e9chal Lyautey","address":"16 Avenue du Mar\u00e9chal Lyautey","city":"Cr\u00e9teil","id":1008},{"lat":"48.7738474","lon":"2.4600815","name":"Jean-Baptiste Oudry","address":"32 boulevard Jean-Baptiste Oudry","city":"Cr\u00e9teil","id":1009},{"lat":"48.7912032","lon":"2.4504989","name":"Denfert Rochereau","address":"12 rue Denfert Rochereau","city":"Cr\u00e9teil","id":1010},{"lat":"48.79177","lon":"2.459949","name":"Mesly","address":"5 rue de Mesly","city":"Cr\u00e9teil","id":1011},{"lat":"48.8007041","lon":"2.4568599","name":"Laferri\u00e8re","address":"142 Avenue Laferri\u00e8re","city":"Cr\u00e9teil","id":1012},{"lat":"48.7803","lon":"2.469707","name":"Paul Casalis","address":"49 Avenue du Docteur Paul Casalis","city":"Cr\u00e9teil","id":1013},{"lat":"48.76895","lon":"2.456477","name":"Magellan","address":"27 rue Magellan","city":"Cr\u00e9teil","id":1014},{"lat":"48.8202532","lon":"2.4745761","name":"Galli\u00e9ni","address":"1 Avenue du G\u00e9n\u00e9ral Galli\u00e9ni","city":"Joinville-le-Pont","id":1015},{"lat":"48.8168","lon":"2.466878","name":"8 mai 1945","address":"1 place du 8 mai 1945","city":"Joinville-le-Pont","id":1016},{"lat":"48.8245149","lon":"2.4753934","name":"Mozart","address":"18 Place Mozart","city":"Joinville-le-Pont","id":1017},{"lat":"48.75014","lon":"2.489249","name":"Louis Sall\u00e9","address":"4 Rue Louis Sall\u00e9","city":"Limeil-Br\u00e9vannes","id":1018},{"lat":"48.73963","lon":"2.490184","name":"Lavoisier","address":"12 rue Lavoisier","city":"Limeil-Br\u00e9vannes","id":1019},{"lat":"48.74356","lon":"2.504422","name":"Valenton","address":"55 avenue de Valenton","city":"Limeil-Br\u00e9vannes","id":1020},{"lat":"48.7486341","lon":"2.4788056","name":"Emile Zola","address":"5 rue Emile Zola","city":"Limeil-Br\u00e9vannes","id":1021},{"lat":"48.7508","lon":"2.473075","name":"Saint John Perse","address":"20 Rue Saint John Perse","city":"Limeil-Br\u00e9vannes","id":1022},{"lat":"48.79878","lon":"2.433635","name":"L\u00e9on Blum","address":"16 avenue L\u00e9on Blum","city":"Maisons-Alfort","id":1023},{"lat":"48.8094628","lon":"2.4344314","name":"Leclerc","address":"145 avenue du G\u00e9n\u00e9ral Leclerc","city":"Maisons-Alfort","id":1024},{"lat":"48.8138166","lon":"2.4212353","name":"De Gaulle","address":"42 avenue du G\u00e9n\u00e9ral de Gaulle","city":"Maisons-Alfort","id":1025},{"lat":"48.835662","lon":"2.4723332","name":"Georges Cl\u00e9menceau","address":"10 avenue Georges Cl\u00e9menceau","city":"Nogent-sur-Marne","id":1026},{"lat":"48.8383861","lon":"2.4934423","name":"Jean Monnet","address":"1 rue Jean Monnet","city":"Nogent-sur-Marne","id":1027},{"lat":"48.83308","lon":"2.489653","name":"Port","address":"27 rue du Port","city":"Nogent-sur-Marne","id":1028},{"lat":"48.75017","lon":"2.347478","name":"Lard","address":"22 Voie au Lard","city":"Rungis","id":1029},{"lat":"48.7459296","lon":"2.3546196","name":"Robert Schuman","address":"43 avenue Robert Schuman","city":"Rungis","id":1030},{"lat":"48.8468108","lon":"2.4175419","name":"Galli\u00e9ni","address":"178 Avenue Galli\u00e9ni","city":"Saint-Mand\u00e9","id":1031},{"lat":"48.8435084","lon":"2.4171838","name":"Mongenot","address":"3 Rue Mongenot","city":"Saint-Mand\u00e9","id":1032},{"lat":"48.8454583","lon":"2.4235655","name":"Pasteur","address":"11 avenue Pasteur","city":"Saint-Mand\u00e9","id":1033},{"lat":"48.83369","lon":"2.414124","name":"Daumesnil","address":"11 avenue Daumesnil","city":"Saint-Mand\u00e9","id":1034},{"lat":"48.82213","lon":"2.422213","name":"Verdun","address":"16 Bis Avenue de Verdun","city":"Saint-Maurice","id":1035},{"lat":"48.80543","lon":"2.362543","name":"Ren\u00e9 Thibert","address":"7 Rue Ren\u00e9 Thibert","city":"Villejuif","id":1036},{"lat":"48.795504","lon":"2.367414","name":"Paul Vaillant Couturier","address":"9 boulevard Paul Vaillant Couturier","city":"Villejuif","id":1037},{"lat":"48.794223","lon":"2.363047","name":"Eug\u00e8ne Varlin","address":"11 rue Eug\u00e8ne Varlin","city":"Villejuif","id":1038},{"lat":"48.8003","lon":"2.356283","name":"Marcel Paul","address":"6 Rue Marcel Paul","city":"Villejuif","id":1039},{"lat":"48.7906029","lon":"2.3613621","name":"Ren\u00e9 Hamon","address":"30 Rue Ren\u00e9 Hamon","city":"Villejuif","id":1040},{"lat":"48.78447","lon":"2.36088","name":"Karl Marx","address":"51 avenue Karl Marx","city":"Villejuif","id":1041},{"lat":"48.78148","lon":"2.354342","name":"\u00c9pi d'Or","address":"2 avenue de l'\u00c9pi d\u2019Or","city":"Villejuif","id":1042},{"lat":"48.7893752","lon":"2.3685212","name":"Maxime Gorki","address":"144 boulevard Maxime Gorki","city":"Villejuif","id":1043},{"lat":"48.7891489","lon":"2.3670245","name":"Jean Jaur\u00e8s","address":"153 Rue Jean Jaur\u00e8s","city":"Villejuif","id":1044},{"lat":"48.787963","lon":"2.3512833","name":"Auguste Perret","address":"11 Rue Auguste Perret","city":"Villejuif","id":1045},{"lat":"48.79917","lon":"2.3657254","name":"Paris","address":"149 Avenue de Paris","city":"Villejuif","id":1046},{"lat":"48.8447052","lon":"2.4340166","name":"De Gaulle","address":"6 avenue du G\u00e9n\u00e9ral de Gaulle","city":"Vincennes","id":1047},{"lat":"48.84779","lon":"2.44345","name":"Fontenay","address":"44 rue de Fontenay","city":"Vincennes","id":1048},{"lat":"48.84681","lon":"2.452298","name":"Murs du parc","address":"2 avenue des murs du parc","city":"Vincennes","id":1049},{"lat":"48.93154","lon":"2.229872","name":"Henri Barbusse","address":"215 rue Henri Barbusse","city":"Argenteuil","id":1050},{"lat":"48.945768","lon":"2.250221","name":"Poste Prolong\u00e9e","address":"1 rue de la Poste Prolong\u00e9e","city":"Argenteuil","id":1051},{"lat":"48.9465353","lon":"2.2561063","name":"Bicheret","address":"4 rue Bicheret","city":"Argenteuil","id":1052},{"lat":"48.9264447","lon":"2.2138164","name":"Edouard Vaillant","address":"77 rue Edouard Vaillant","city":"Bezons","id":1053},{"lat":"48.9238068","lon":"2.2205386","name":"Jean Jaur\u00e8s","address":"81 rue Jean Jaur\u00e8s","city":"Bezons","id":1054},{"lat":"48.9237996","lon":"2.2092127","name":"Emile Zola","address":"50 rue Emile Zola","city":"Bezons","id":1055},{"lat":"48.9727125","lon":"2.3067895","name":"Arriv\u00e9e","address":"19 Rue de l'Arriv\u00e9e","city":"Enghien-les-Bains","id":1056},{"lat":"48.966392","lon":"2.3016471","name":"Coussaye","address":"2 rue de la Coussaye","city":"Enghien les Bains","id":1057}]