[{"lat":"48.86648351450895","lon":"2.334433421223788","name":"01016 - OPERA PYRAMIDES","address":"27 RUE THERESE - 75001 PARIS","id":0},{"lat":"48.86223871704716","lon":"2.341960937955673","name":"01027 - BERGER","address":"49 RUE BERGER - 75001 PARIS","id":1},{"lat":"48.86024709541543","lon":"2.342302645725544","name":"01011 - RIVOLI MAIRIE DU 1ER","address":"36 RUE DE L'ARBRE SEC - 75001 PARIS","id":2},{"lat":"48.86557114282421","lon":"2.330567417577153","name":"01017 - SAINT HONORE","address":"215 RUE SAINT HONORE - 75001 PARIS","id":3},{"lat":"48.866285221156055","lon":"2.325249045083579","name":"01020 - RIVOLI CONCORDE","address":"2 RUE CAMBON - 75001 PARIS","id":4},{"lat":"48.866067150086806","lon":"2.345463652702569","name":"02101 - BACHAUMONT","address":"14 RUE BACHAUMONT - 75002 PARIS","id":5},{"lat":"48.87000061719652","lon":"2.348995518049354","name":"02107 - THOREL","address":"11 RUE THOREL - 75002 PARIS","id":6},{"lat":"48.866137224583404","lon":"2.359661143626467","name":"03005 - TURBIGO SAINTE ELISABETH","address":"7 RUE SAINTE ELISABETH - 75003 PARIS","id":7},{"lat":"48.855501357701705","lon":"2.368429069929045","name":"04107 - BEAUMARCHAIS","address":"27 BOULEVARD BEAUMARCHAIS - 75004 PARIS","id":8},{"lat":"48.85940271964358","lon":"2.35592748653501","name":"04014 - ARCHIVES BLANCS MANTEAUX","address":"29 RUE DES BLANCS MANTEAUX - 75004 PARIS","id":9},{"lat":"48.855965856210226","lon":"2.356381154873061","name":"04015 - MAIRIE DU 4 EME","address":"25 RUE DU PONT LOUIS PHILIPPE - 75004 PARIS","id":10},{"lat":"48.8529448879212","lon":"2.352088649440748","name":"04003 - PONT SAINT LOUIS","address":"1 QUAI AUX FLEURS - 75004 PARIS","id":11},{"lat":"48.8525571174352","lon":"2.3682407194182","name":"04007 - BOURDON","address":"BOULEVARD BOURDON - 75004 PARIS","id":12},{"lat":"48.85127148209335","lon":"2.362430212982278","name":"04005 - SULLY MORLAND","address":"2 QUAI DES CELESTINS - 75004 PARIS","id":13},{"lat":"48.8537973449702","lon":"2.368400806960401","name":"04101 - BASTILLE","address":"11 RUE DE LA BASTILLE - 75004 PARIS","id":14},{"lat":"48.856246721700735","lon":"2.353281344612189","name":"04016 - LOBAU","address":"3 RUE LOBAU - 75004 PARIS","id":15},{"lat":"48.85851071299225","lon":"2.358633579117469","name":"04013 - FRANCS BOURGEOIS","address":"50 RUE VIEILLE DU TEMPLE - 75004 PARIS","id":16},{"lat":"48.841916179825965","lon":"2.358912681317667","name":"05104 - BUFFON","address":"47 RUE BUFFON - 75005 PARIS","id":17},{"lat":"48.850310432924466","lon":"2.345015835298588","name":"05002 - SAINT JACQUES","address":"20 RUE SOMMERARD - 75005 PARIS","id":18},{"lat":"48.84629503172156","lon":"2.352222921607491","name":"05022 - CARDINAL LEMOINE","address":"40 RUE BOU LANGERS - 75005 PARIS","id":19},{"lat":"48.85045800918843","lon":"2.352454275492188","name":"05107 - PONTOISE","address":"1 RUE DE PONTOISE - 75005 PARIS","id":20},{"lat":"48.84163270861767","lon":"2.348552018116996","name":"05014 - CALVIN","address":"8 RUE JEAN CALVIN - 75005 PARIS","id":21},{"lat":"48.851581340028176","lon":"2.343704536722773","name":"05001 - SAINT GERMAIN HARPE","address":"32 RUE DE LA HARPE - 75005 PARIS","id":22},{"lat":"48.84108002201592","lon":"2.355430714244752","name":"05028 - CENSIER BUFFON","address":"6 RUE CENSIER - 75005 PARIS","id":23},{"lat":"48.853751073467855","lon":"2.339113722899687","name":"06015 - MAZET SAINT ANDRE DES ARTS","address":"10 RUE ANDRE MAZET - 75006 PARIS","id":24},{"lat":"48.84892295818577","lon":"2.341040508705961","name":"06029 - VAUGIRARD PRINCE","address":"FACE 1 RUE DE VAUGIRARD - 75006 PARIS","id":25},{"lat":"48.84373446877937","lon":"2.333428381875887","name":"06008 - ASSAS LUXEMBOURG","address":"90 RUE D'ASSAS - 75006 PARIS","id":26},{"lat":"48.84612989154848","lon":"2.324240578144087","name":"06027 - VAUGIRARD DESGOFFE","address":"2 RUE BLAISE DESGOFFE - 75006 PARIS","id":27},{"lat":"48.851647848142655","lon":"2.33081707438869","name":"06003 - SAINT SULPICE","address":"15 RUE DU VIEUX COLOMBIER - 75006 PARIS","id":28},{"lat":"48.84336424277311","lon":"2.337803430969035","name":"06104 - HERSCHEL","address":"7 RUE HERSCHEL - 75006 PARIS","id":29},{"lat":"48.855296898603285","lon":"2.339947307565249","name":"06014 - PONT DE LODI DAUPHINE","address":"7 RUE DU PONT DE LODI - 75006 PARIS","id":30},{"lat":"48.847517829441934","lon":"2.326973305586841","name":"06004 - REGARD","address":"19 RUE DU REGARD - 75006 PARIS","id":31},{"lat":"48.843295457036824","lon":"2.326541134127944","name":"06005 - MONTPARNASSE","address":"40 RUE DU MONTPARNASSE - 75006 PARIS","id":32},{"lat":"48.84920849993863","lon":"2.328514546230014","name":"06025 - RENNES - ASSAS","address":"16 RUE D'ASSAS - 75006 PARIS","id":33},{"lat":"48.85083365440354","lon":"2.342198228067738","name":"06031 - SAINT MICHEL SARRAZIN","address":"5 RUE PIERRE SARAZIN - 75006 PARIS","id":34},{"lat":"48.84703008062633","lon":"2.321289421006791","name":"06108 - SAINT ROMAIN CHERCHE MIDI","address":"20 RUE SAINT ROMAIN - 75006 PARIS","id":35},{"lat":"48.842738478257814","lon":"2.329794221763396","name":"06007 - VAVIN","address":"18 RUE BREA - 75006 PARIS","id":36},{"lat":"48.84846886395447","lon":"2.32899674681117","name":"06030 - ASSAS-VAUGIRARD","address":"22 RUE D'ASSAS - 75006 PARIS","id":37},{"lat":"48.86314","lon":"2.31669","name":"00905 - CONCORDE\/BERGES DE SEINE (STATION MOBILE)","address":"QUAI D'ORSAY - CONCORDE - 75007 PARIS","id":38},{"lat":"48.860897797941035","lon":"2.29559959844703","name":"07023 - BOURDONNAIS TOUR EIFFEL","address":"QUAI BRANLY - 75007 PARIS","id":39},{"lat":"48.85865170952645","lon":"2.303716580234576","name":"07021 - BOSQUET SAINT DOMINIQUE","address":"37 AVENUE BOSQUET - 75007 PARIS","id":40},{"lat":"48.856059310074706","lon":"2.302239128884557","name":"07103 - BELGRADE","address":"2 RUE DE BELGRADE - 75007 PARIS","id":41},{"lat":"48.8581690434843","lon":"2.300528330043888","name":"07024 - AVENUE RAPP","address":"43 AVENUE RAPP - 75007 PARIS","id":42},{"lat":"48.86233","lon":"2.31124","name":"07026 - PLACE DE FINLANDE","address":"39 QUAI D'ORSAY - 75007 PARIS","id":43},{"lat":"48.84750225840085","lon":"2.312688328662078","name":"07013 - PLACE DE BRETEUIL","address":"17 RUE DUROC - 75007 PARIS","id":44},{"lat":"48.85894298617901","lon":"2.331418204714572","name":"07006 - QUAI VOLTAIRE","address":"QUAI VOLTAIRE - 75007 PARIS","id":45},{"lat":"48.882148945631904","lon":"2.319860054774211","name":"08020 - METRO ROME","address":"74 BOULEVARD DES BATIGNOLLES - 75008 PARIS","id":46},{"lat":"48.87614039826388","lon":"2.301303138307601","name":"08054 - HOCHE ALBRECHT","address":"10 AVENUE BERTHIER ALBRECHT - 75008 PARIS","id":47},{"lat":"48.8696161948985","lon":"2.306620834902348","name":"08013 - MARIGNAN","address":"24 RUE DE MARIGNAN - 75008 PARIS","id":48},{"lat":"48.875353174464706","lon":"2.322884365751902","name":"08008 - ROME SAINT LAZARE","address":"1 RUE JOSEPH SANSBOEUF - 75008 PARIS","id":49},{"lat":"48.86729323621449","lon":"2.307691605650344","name":"08030 - MONTAIGNE","address":"25 RUE BAYARD - 75008 PARIS","id":50},{"lat":"48.86909008833763","lon":"2.324429630496505","name":"08005 - MADELEINE","address":"04 PLACE DE LA MADELEINE - 75008 PARIS","id":51},{"lat":"48.874923109802","lon":"2.319395144377322","name":"08113 - PLACE ST AUGUSTIN","address":"5 PLACE SAINT AUGUSTIN - 75008 PARIS","id":52},{"lat":"48.873434081397704","lon":"2.29770677798004","name":"08028 - HOUSSAYE","address":"1 RUE ARSENE HOUSSAYE - 75008 PARIS","id":53},{"lat":"48.875377647487014","lon":"2.296555342476269","name":"08056 - WAGRAM","address":"21 RUE BEAUJON - 75008 PARIS","id":54},{"lat":"48.88093535677379","lon":"2.324516635146477","name":"08011 - DUBLIN","address":"1 RUE CLAPEYRON - 75008 PARIS","id":55},{"lat":"48.87711191876653","lon":"2.322329320868037","name":"08110 - STOCKOLM ROME","address":"6 RUE DE STOCKOLM - 75008 PARIS","id":56},{"lat":"48.874808024965695","lon":"2.326481486218277","name":"08009 - SAINT LAZARE RER","address":"1 RUE DE L'ISLY - 75008 PARIS","id":57},{"lat":"48.87170519139307","lon":"2.298528265679806","name":"08003 - GALILLE","address":"63 RUE GALILEE - 75008 PARIS","id":58},{"lat":"48.87916177777549","lon":"2.34369843072095","name":"09008 - TOUR D'AUVERGNE","address":"24 RUE D'AUVERGNE - 75009 PARIS","id":59},{"lat":"48.87563967181739","lon":"2.343523591554751","name":"09101 - CADET LA FAYETTE","address":"24-26 RUE CADET - 75009 PARIS","id":60},{"lat":"48.87242006305313","lon":"2.348395236282807","name":"10042 - POISSONNI\u00c8RE - ENGHIEN","address":"52 RUE D'ENGHIEN \/ ANGLE RUE DU FAUBOURG POISSONIERE - 75010 PARIS","id":61},{"lat":"48.87277815648997","lon":"2.376348394645978","name":"10040 - BELLEVILLE","address":"8 BOULEVARD DE LA VILETTE - 75010 PARIS","id":62},{"lat":"48.874575036780286","lon":"2.356796765204903","name":"10017 - GARE DE L'EST SAINT LAURENT","address":"1 RUE DE LA FIDELITE - 75010 PARIS","id":63},{"lat":"48.87904931076023","lon":"2.354159095958248","name":"10152 - GARE DU NORD 2","address":"3 BOULEVARD DE DENAIN - 75010 PARIS","id":64},{"lat":"48.87742034308959","lon":"2.366011448983217","name":"10025 - ECLUSES SAINT MARTIN","address":"148 QUAI DE JEMMAPES - 75010 PARIS","id":65},{"lat":"48.870278078579595","lon":"2.351281636686514","name":"10105 - BONNE NOUVELLE PROP2","address":"2 RUE DE MAZAGRAN - 75010 PARIS","id":66},{"lat":"48.88387986981542","lon":"2.360080356961043","name":"10026 - CHATEAU LANDON","address":"2 RUE DE CHATEAU LANDON - 75010 PARIS","id":67},{"lat":"48.87686690577979","lon":"2.356119082991818","name":"10022 - CHABROL SAINT QUENTIN","address":"FACE 124 RUE DU FAUBOURG SAINT DENIS - 75010 PARIS","id":68},{"lat":"48.88095574164779","lon":"2.352430514838522","name":"10033 - LARIBOISIERE","address":"15 RUE SAINT VINCENT DE PAUL - 75010 PARIS","id":69},{"lat":"48.88414119396773","lon":"2.356109465877721","name":"10041 - CHARTRES (18 ARR.)","address":"FACE 39 BOULEVARD DE LA CHAPELLE - 75010 PARIS","id":70},{"lat":"48.879332174655","lon":"2.368628715748762","name":"10110 - LOUIS BLANC (PROP 2)","address":"10 RUE LOUIS BLANC - 75010 PARIS","id":71},{"lat":"48.850379753879935","lon":"2.38386933547444","name":"11008 - FAIDHERBE CHALIGNY","address":"223 RUE DU FAUBOURG SAINT ANTOINE - 75011 PARIS","id":72},{"lat":"48.862650300140295","lon":"2.367053490449912","name":"11043 - CIRQUE D HIVER","address":"PLACE PASDELOUP - 75011 PARIS","id":73},{"lat":"48.85050701184191","lon":"2.393075558274471","name":"11012 - MONTREUIL VOLTAIRE","address":"93 RUE DE MONTREUIL - 75011 PARIS","id":74},{"lat":"48.852193095437535","lon":"2.3890216505832","name":"11009 - RUE DES BOULETS","address":"45 RUE DES BOULETS - 75011 PARIS","id":75},{"lat":"48.846964359503055","lon":"2.399868277428793","name":"12015 - NATION PICPUS","address":"FACE 67 BOULEVARD DE PICPUS - 75012 PARIS","id":76},{"lat":"48.842577100515385","lon":"2.397249990597384","name":"12019 - GARE DE REUILLY","address":"58 RUE DE LA GARE DE REUILLY - 75012 PARIS","id":77},{"lat":"48.84618800146489","lon":"2.37040616152132","name":"12102 - DIDEROT BERCY","address":"224 RUE DE BERCY - 75012 PARIS","id":78},{"lat":"48.84190715333373","lon":"2.376605625312414","name":"12105 - BERCY VILLOT","address":"153 RUE DE BERCY - 75012 PARIS","id":79},{"lat":"48.84641936927943","lon":"2.415636607146136","name":"12115 - PORTE DE VINCENNES","address":"22 AVENUE DE LA PORTE DE VINCENNES - 75012 PARIS","id":80},{"lat":"48.82603516605852","lon":"2.342176808004326","name":"13021 - BOUSSINGAULT - TOLBIAC","address":"55 RUE BOUSSINGAULT - 75013 PARIS","id":81},{"lat":"48.823316172177535","lon":"2.35433694417225","name":"13026 - PLACE HENOCQUE VERSION 2","address":"21 RUE DU DR LERAY ET LANDOUZY - 75013 PARIS","id":82},{"lat":"48.822632842232245","lon":"2.377738433657617","name":"13047 - BOUTROUX VITRY","address":"1 AVENUE BOUTROUX - 75013 PARIS","id":83},{"lat":"48.83772792097816","lon":"2.344664043426302","name":"13001 - PORT ROYAL","address":"51 BOULEVARD PORT ROYAL - 75013 PARIS","id":84},{"lat":"48.827564379878744","lon":"2.34906350669476","name":"13022 - BUTTE AUX CAILLES","address":"27 ET 36 RUE DE LA BUTTE AUX CAILLES - 75013 PARIS","id":85},{"lat":"48.824952872870355","lon":"2.388580678853776","name":"13121 - IVRY BRUNESEAU","address":"RUE BRUNESEAU - 75013 PARIS","id":86},{"lat":"48.84057730290756","lon":"2.366124461859616","name":"13151 - GARE D'AUSTERLITZ","address":"GARE D'AUSTERLITZ - 75013 PARIS","id":87},{"lat":"48.82690019971573","lon":"2.365177603483576","name":"13036 - TOLBIAC NATIONALE","address":"86 RUE TOLBIAC - 75013 PARIS","id":88},{"lat":"48.82245594764965","lon":"2.347382729482953","name":"13025 - PLACE DE RUNGIS","address":"FACE 35 RUE DE LA FONTAINE A MULARD - 75013 PARIS","id":89},{"lat":"48.83094844846017","lon":"2.37965351592796","name":"13016 - PRIMO LEVI","address":"9 RUE PRIMO LEVI - 75013 PARIS","id":90},{"lat":"48.842524490766195","lon":"2.364044958656523","name":"13014 - GARE D'AUSTERLITZ","address":"5 BIS BOULEVARD DE L'HOPITAL - 75013 PARIS","id":91},{"lat":"48.82196244101745","lon":"2.368528699972122","name":"13041 - PORTE D'IVRY","address":"4 AVENUE D'IVRY - 75013 PARIS","id":92},{"lat":"48.822203096341305","lon":"2.350422032913929","name":"13109 - BRILLAT SAVARIN","address":"16 RUE BRILLAT SAVARIN - 75013 PARIS","id":93},{"lat":"48.83124496844904","lon":"2.377263236877398","name":"13054 - PAU CASALS","address":"1 RUE PAU CASALS - 75013 PARIS","id":94},{"lat":"48.82363397638854","lon":"2.361571534156357","name":"13113 - CHOISY VISTULE","address":"2 RUE DE LA VISCULE - 75013 PARIS","id":95},{"lat":"48.825970136397075","lon":"2.360231840755094","name":"13035 - IVRY TOLBIAC","address":"116 AVENUE DE CHOISY - 75013 PARIS","id":96},{"lat":"48.83512886504287","lon":"2.34157863455693","name":"14113 - ARAGO 2","address":"36 RUE DE LA SANTE - 75014 PARIS","id":97},{"lat":"48.83425924993043","lon":"2.313391647113252","name":"14029 - GERGOVIE VERCINGETORIX","address":"112 RUE VERCINGETORIX - 75014 PARIS","id":98},{"lat":"48.82476710259696","lon":"2.335999677300567","name":"14016 - REILLE MONTSOURIS","address":"61 AVENUE RENE COTY - 75014 PARIS","id":99},{"lat":"48.86356704711952","lon":"2.347702021141098","name":"01007 - ETIENNE MARCEL","address":"2 RUE DE TURBIGO - 75001 PARIS","id":100},{"lat":"48.85946238924527","lon":"2.344366128446111","name":"01010 - PONT NEUF","address":"10 RUE BOUCHER - 75001 PARIS","id":101},{"lat":"48.8613894682984","lon":"2.340055232817477","name":"01025 - TEMPLE DE L'ORATOIRE","address":"2 RUE DE L'ORATOIRE - 75001 PARIS","id":102},{"lat":"48.86479366612619","lon":"2.329431421945852","name":"01018 - RIVOLI TUILERIE","address":"2 RUE D'ALGER - 75001 PARIS","id":103},{"lat":"48.863580506517565","lon":"2.342609463824718","name":"01008 - LOUVRE \/ COQUILLERE","address":"9 rue COQUILLIERE 75001 PARIS","id":104},{"lat":"48.868660481539266","lon":"2.35018588824494","name":"02016 - ABOUKIR","address":"108 RUE D'ABOUKIR - 75002 PARIS","id":105},{"lat":"48.87077575727228","lon":"2.343163334385358","name":"02010 - BOULEVARD MONTMARTRE","address":"21 RUE D'UZES - 75002 PARIS","id":106},{"lat":"48.867293262819686","lon":"2.340563686363604","name":"02008 - MAIRIE DU 2EME","address":"11 RUE DE LA BANQUE - 75002 PARIS","id":107},{"lat":"48.86240121191442","lon":"2.359447031946381","name":"03007 - ARCHIVES PASTOURELLE","address":"67 RUE DES ARCHIVES - 75003 PARIS","id":108},{"lat":"48.861581157730946","lon":"2.35660934144383","name":"03009 - TEMPLE 113","address":"76 RUE DU TEMPLE - 75003 PARIS","id":109},{"lat":"48.85815895677863","lon":"2.364714992099186","name":"03002 - SAINT GILLES","address":"26 RUE SAINT GILLES - 75003 PARIS","id":110},{"lat":"48.859846683206975","lon":"2.361050487092021","name":"03008 - PERLE","address":"22 RUE DE LA PERLE - 75003 PARIS","id":111},{"lat":"48.862464980403914","lon":"2.354236781419645","name":"03010 - BEAUBOURG","address":"46 RUE BEAUBOURG - 75003 PARIS","id":112},{"lat":"48.857203787697095","lon":"2.353976273618783","name":"04103 - HOTEL DE VILLE","address":"1 RUE DES ARCHIVES - 75004 PARIS","id":113},{"lat":"48.85525336084426","lon":"2.347356447642631","name":"04002 - MARCHE AUX FLEURS","address":"PLACE LOUIS LEPINE - 75004 PARIS","id":114},{"lat":"48.861419072223185","lon":"2.35258144286207","name":"04021 - BEAUBOURG RAMBUTEAU","address":"49 RUE RAMBUTEAU - 75004 PARIS","id":115},{"lat":"48.858828988192535","lon":"2.35189147061665","name":"04019 - BEAUBOURG SAINT MERRY","address":"4 RUE DU CLOITRE SAINT MERRI - 75004 PARIS","id":116},{"lat":"48.84273504298964","lon":"2.352472437223356","name":"05024 - PLACE MONGE","address":"4 RUE DOLOMIEU - 75005 PARIS","id":117},{"lat":"48.84367484543761","lon":"2.354615982683207","name":"05031 - LACEPEDE","address":"2 RUE LACEPEDE - 75005 PARIS","id":118},{"lat":"48.84623928170344","lon":"2.341324916011569","name":"05003 - GAY LUSSAC LE GOFF","address":"9 RUE LE GOFF - 75005 PARIS","id":119},{"lat":"48.845616878509624","lon":"2.355745499998791","name":"05023 - PLACE JUSSIEU","address":"13 RUE JUSSIEU - 75005 PARIS","id":120},{"lat":"48.84315817822931","lon":"2.363748444641593","name":"05035 - BUFFON AUSTERLITZ","address":"1 RUE BUFFON - 75005 PARIS","id":121},{"lat":"48.848919007908286","lon":"2.347201329520476","name":"05007 - ECOLES CARMES","address":"39 RUE DES ECOLES - 75005 PARIS","id":122},{"lat":"48.85761567856468","lon":"2.335831353037739","name":"06001 - INSTITUT","address":"5 QUAI MALAQAIS - 75006 PARIS","id":123},{"lat":"48.85549998439073","lon":"2.333445220031193","name":"06002 - SAINT P\u00c8RES","address":"1 RUE SAINT BENOIT - 75006 PARIS","id":124},{"lat":"48.851751374458864","lon":"2.338161695134053","name":"06028 - ODEON QUATRE VENTS","address":"6 RUE DES QUATRE VENTS - 75006 PARIS","id":125},{"lat":"48.853261668611665","lon":"2.326319806384382","name":"07004 - RASPAIL VARENNE","address":"FACE 28 BOULEVARD RASPAIL - 75007 PARIS","id":126},{"lat":"48.85123038028847","lon":"2.325070038738617","name":"07003 - BON MARCHE","address":"RUE VELPEAU - 75007 PARIS","id":127},{"lat":"48.852241617707335","lon":"2.326606019476806","name":"07101 - SEVRES BABYLONE","address":"BOULEVARD RASPAIL - 75007 PARIS","id":128},{"lat":"48.85213620522547","lon":"2.301961227213259","name":"00904 - PLACE JOFFRE \/ ECOLE MILITAIRE","address":"ECOLE MILITAIRE-AVENUE DE LA MOTTE PICQUET - 75007 PARIS","id":129},{"lat":"48.85546173595601","lon":"2.325681935889154","name":"07005 - BAC","address":"FACE 2 BOULEVARD RASPAIL - 75007 PARIS","id":130},{"lat":"48.84857760756107","lon":"2.320417393123817","name":"07002 - VANEAU","address":"86 RUE VANEAU - 75007 PARIS","id":131},{"lat":"48.856502977695634","lon":"2.293178754328878","name":"07025 - SUFFREN TOUR EIFFEL","address":"2 AVENUE OCTAVE CREARD - 75007 PARIS","id":132},{"lat":"48.865346269362675","lon":"2.310193787964762","name":"08029 - PLACE DU CANADA","address":"1 AVENUE FRANKLIN ROOSEVELT - 75008 PARIS","id":133},{"lat":"48.870481938552295","lon":"2.307662540152187","name":"08039 - COLISEE","address":"6 RUE DU COLISEE - 75008 PARIS","id":134},{"lat":"48.87482319032095","lon":"2.325296117814705","name":"08108 - L'ISLY","address":"10-12 RUE DE L'ISLY - 75008 PARIS","id":135},{"lat":"48.874230055580306","lon":"2.325570111724113","name":"08007 - HAUSSMANN ROME","address":"1 RUE DE ROME - 75008 PARIS","id":136},{"lat":"48.879581165638115","lon":"2.326427352474812","name":"08010 - LIEGE","address":"22 RUE DE LIEGE - 75008 PARIS","id":137},{"lat":"48.87069015790859","lon":"2.303222423974782","name":"08041 - CHAMPS ELYSEES LINCOLN","address":"16 RUE DE LINCOLN - 75008 PARIS","id":138},{"lat":"48.87983122511022","lon":"2.345396338986368","name":"09007 - CONDORCET","address":"34 RUE CONDORCET - 75009 PARIS","id":139},{"lat":"48.881149033952994","lon":"2.336681004295117","name":"09019 - VICTOR MASSE","address":"38 RUE VICTOR MASSE - 75009 PARIS","id":140},{"lat":"48.879505265624786","lon":"2.337190639271711","name":"09020 - TOUDOUZE CLAUZEL","address":"FACE 27 RUE CLAUZEL - 75009 PARIS","id":141},{"lat":"48.875329723153264","lon":"2.340772662331439","name":"09014 - FAUBOURG MONTMARTRE","address":"55 RUE DU FAUBOURG MONTMARTRE - 75009 PARIS","id":142},{"lat":"48.88103214901626","lon":"2.340774412117837","name":"09017 - TRUDAINE MARTYRS","address":"01 RUE LALLIER - 75009 PARIS","id":143},{"lat":"48.869956681574806","lon":"2.326599657113696","name":"09034 - GODOT DE MAUROY","address":"2 RUE GODOT DE MAUROY - 75009 PARIS","id":144},{"lat":"48.872795019872605","lon":"2.328315742616178","name":"09033 - HAVRE CAUMARTIN","address":"FACE 45 RUE CAUMARTIN - 75009 PARIS","id":145},{"lat":"48.876719895109","lon":"2.344393021853951","name":"09010 - CADET","address":"1\/3 RUE DE ROCHECHOUART - 75009 PARIS","id":146},{"lat":"48.87582185503067","lon":"2.347303230302456","name":"09113 - BLEUE","address":"5 RUE BLEUE - 75009 PARIS","id":147},{"lat":"48.877770695346776","lon":"2.339784967507022","name":"09016 - MARTYRS CHORON","address":"24 RUE DE CHORON - 75009 PARIS","id":148},{"lat":"48.871815737396304","lon":"2.337201547845077","name":"09023 - ITALIENS LAFFITE","address":"1 RUE LAFFITE - 75009 PARIS","id":149},{"lat":"48.87662212037311","lon":"2.339799899316122","name":"09015 - LAMARTINE","address":"43 RUE LAMARTINE - 75009 PARIS","id":150},{"lat":"48.88207022703438","lon":"2.336679631444242","name":"09018 - PLACE PIGALLE","address":"05 RUE DUPERRE - 75009 PARIS","id":151},{"lat":"48.87326713758289","lon":"2.340753448052758","name":"09013 - MAIRIE DU 9EME","address":"20 RUE DE LA GRANGE BATELIERE - 75009 PARIS","id":152},{"lat":"48.874112916506824","lon":"2.362498528696257","name":"10015 - RECOLLETS","address":"46 RUE LUCIE SAMPAIX - 75010 PARIS","id":153},{"lat":"48.88384326568884","lon":"2.367110644031659","name":"10036 - AQUEDUC","address":"80 RUE DE L'AQUEDUC - 75010 PARIS","id":154},{"lat":"48.873267841170026","lon":"2.359323613430623","name":"10012 - VINAIGRIERS","address":"58 RUE DES VINAIGRIERS - 75010 PARIS","id":155},{"lat":"48.876419813641114","lon":"2.358630064544601","name":"00906 - GARE DE L'EST","address":"GARDE DE L'EST-PARVIS GARE DE L'EST - 75010 PARIS","id":156},{"lat":"48.87099998982137","lon":"2.361141436574885","name":"10010 - JACQUES BONSERGENT","address":"FACE 8 PLACE JACQUES BONSERGENT - 75010 PARIS","id":157},{"lat":"48.875670112481366","lon":"2.359509937592322","name":"10161 - GARE DE L'EST","address":"FACE 129 RUE DU FBG SAINT MARTIN - 75010 PARIS","id":158},{"lat":"48.86967912445944","lon":"2.354327697377583","name":"10002 - STRASBOURG","address":"3 BD STRASBOURG - 75010 PARIS","id":159},{"lat":"48.87615605427147","lon":"2.360914908320552","name":"10023 - VERDUN","address":"1 AVENUE DE VERDUN - 75010 PARIS","id":160},{"lat":"48.884348151333135","lon":"2.364163329874197","name":"10035 - AUBERVILLIERS","address":"1 BOULEVARD DE LA CHAPELLE - 75010 PARIS","id":161},{"lat":"48.86909174869475","lon":"2.362261761814593","name":"10011 - BOURSE DU TRAVAIL","address":"3 RUE DU CHATEAU D'EAU - 75010 PARIS","id":162},{"lat":"48.87077436024043","lon":"2.349649636832728","name":"10003 - HAUTEVILLE","address":"1 RUE D'HAUTEVILLE - 75010 PARIS","id":163},{"lat":"48.87397217237368","lon":"2.348388757504776","name":"10005 - CONSERVATOIRE","address":"59 RUE DES PETITES ECURIES - 75010 PARIS","id":164},{"lat":"48.880370620982944","lon":"2.352820057031213","name":"10028 - GARE DU NORD DENAN","address":"24 RUE DE DUNKERQUE - 75010 PARIS","id":165},{"lat":"48.86651607982108","lon":"2.369322530407524","name":"11113 - REPUBLIQUE FERRY","address":"FACE 140 BOULEVARD RICHARD LENOIR - 75011 PARIS","id":166},{"lat":"48.86343198963591","lon":"2.37120861796012","name":"11044 - RICHARD LENOIR VOLTAIRE NORD","address":"FACE 104 BOULEVARD RICHARD LENOIR - 75011 PARIS","id":167},{"lat":"48.85384822621097","lon":"2.369701488217501","name":"11001 - BASTILLE RICHARD LENOIR","address":"2 BOULEVARD RICHARD LENOIR - 75011 PARIS","id":168},{"lat":"48.866331347902545","lon":"2.371097448471508","name":"11109 - REPUBLIQUE PIERRE LEVEE","address":"1 RUE DE LA PIERRE LEVEE - 75011 PARIS","id":169},{"lat":"48.85510629540472","lon":"2.373424541930557","name":"11002 - ROQUETTE THIERE","address":"37 RUE DE LA ROQUETTE - 75011 PARIS","id":170},{"lat":"48.8518182000139","lon":"2.393255376309212","name":"11016 - PHILIPPE AUGUSTE","address":"5 RUE DU PASSAGE PHILIPPE AUGUSTE - 75011 PARIS","id":171},{"lat":"48.854304177811706","lon":"2.38488615344003","name":"11112 - CHARONNES VALLES","address":"22 RUE JULES VALLES - 75011 PARIS","id":172},{"lat":"48.86421167470377","lon":"2.378255841512857","name":"11018 - SAINT MAUR AVENUE DE LA REPUBLIQUE","address":"87 RUE DE SAINT MAUR - 75011 PARIS","id":173},{"lat":"48.847653880984645","lon":"2.390238633141864","name":"12107 - DIDEROT BOURDAN","address":"146 BOULEVARD DIDEROT - 75012 PARIS","id":174},{"lat":"48.833654852830335","lon":"2.413463576486826","name":"12041 - BOIS DE VINCENNES","address":"AVENUE DAUMESNIL - 75012 PARIS","id":175},{"lat":"48.841923663276546","lon":"2.389728979467376","name":"12028 - VIVALDI","address":"42 ALLEE VIVALDI - 75012 PARIS","id":176},{"lat":"48.8456092496701","lon":"2.395932627208539","name":"12018 - SAINT MANDE - FAVRE","address":"5 AVENUE SAINT MANDE - 75012 PARIS","id":177},{"lat":"48.847301800009085","lon":"2.39552056485834","name":"12014 - NATION","address":"16 PLACE DE LA NATION SUR TPC - 75012 PARIS","id":178},{"lat":"48.83544491617421","lon":"2.431421081436563","name":"12122 - POLYGONE","address":"AVENUE DU POLYGONE - 75012 PARIS","id":179},{"lat":"48.837061492855675","lon":"2.440446664251129","name":"12125 - PYRAMIDE ENTR\u00c9E PARC FLORAL","address":"PYRAMIDE ENTREE PARC FLORAL - 75012 PARIS","id":180},{"lat":"48.83884902339515","lon":"2.389724508120191","name":"12029 - DUGOMMIER","address":"FACE 4 BOULEVARD DE REUILLY - 75012 PARIS","id":181},{"lat":"48.845128293794325","lon":"2.401400707666872","name":"12016 - PICPUS","address":"43 AVENUE DE SAINT MANDE - 75012 PARIS","id":182},{"lat":"48.82558443109317","lon":"2.409830941796777","name":"12119 - DOM P\u00c9RIGNON GRAVELLE","address":"ROUTE DOM PERIGNON - 75012 PARIS","id":183},{"lat":"48.84486731955409","lon":"2.382578935054453","name":"12011 - CHARENTON","address":"160 RUE CHARENTON - 75012 PARIS","id":184},{"lat":"48.828369893809565","lon":"2.384440354604646","name":"13050 - QUAI PANHARD ET LEVASSOR","address":"23 QUAI PANHARD ET LEVASSOR - 75013 PARIS","id":185},{"lat":"48.82987537265954","lon":"2.35424653463425","name":"13106 - BOBILLOT MERY","address":"17 RUE BOBILLOT - 75013 PARIS","id":186},{"lat":"48.830957464145705","lon":"2.364107053254628","name":"13042 - NATIONALE BACH","address":"150 RUE NATIONALE - 75013 PARIS","id":187},{"lat":"48.8371336894515","lon":"2.37434055460561","name":"00903 - QUAI MAURIAC  \/ PONT DE BERCY","address":"FETE DE L'OH (BERCY) - QUAI MAURIAC ANG PONT DE BERCY - 75013 PARIS","id":188},{"lat":"48.82552586188404","lon":"2.350205084974572","name":"13024 - BOBILLOT TOLBIAC","address":"81 RUE BOBILLOT - 75013 PARIS","id":189},{"lat":"48.832272458639544","lon":"2.367415866750153","name":"13043 - DUNOIS CLISSON","address":"55 RUE DUNOIS - 75013 PARIS","id":190},{"lat":"48.817312300431965","lon":"2.360218480943566","name":"13033 - PORTE D'ITALIE","address":"15 AVENUE DE LA PORTE D'ITALIE - 75013 PARIS","id":191},{"lat":"48.828974744329585","lon":"2.374332000856194","name":"13052 - TOLBIAC LERREDE","address":"2 RUE LEREDDE - 75013 PARIS","id":192},{"lat":"48.83815160808658","lon":"2.357108449556404","name":"13006 - SAINT MARCEL JEANNE D'ARC","address":"02 RUE DUMERIL - 75013 PARIS","id":193},{"lat":"48.82903204071324","lon":"2.356183369179921","name":"13029 - ITALIE","address":"30 AVENUE D'ITALIE - 75013 PARIS","id":194},{"lat":"48.832570718038","lon":"2.371231986681921","name":"13015 - WEISS","address":"2 RUE LOUIS WEISS - 75013 PARIS","id":195},{"lat":"48.821039286989794","lon":"2.356345144172923","name":"13110 - MOULIN DE LA POINTE","address":"66 RUE DU MOULIN DE LA POINTE - 75013 PARIS","id":196},{"lat":"48.827525292006904","lon":"2.331729378994153","name":"14011 - ALESIA SARRETTE","address":"6 RUE SARRETTE - 75014 PARIS","id":197},{"lat":"48.82341630050286","lon":"2.322936857107952","name":"14107 - PORTE DE MONTROUGE 2","address":"2 AVENUE DE LA PORTE DE MONTROUGE - 75014 PARIS","id":198},{"lat":"48.82570981702807","lon":"2.321849987344236","name":"14037 - JEAN MOULIN","address":"56 AVENUE JEAN MOULIN - 75014 PARIS","id":199},{"lat":"48.866810653323","lon":"2.334388448251871","name":"01116 - OP\u00c9RA PYRAMIDES","address":"4 RUE DE VENTADOUR - 75001 PARIS","id":200},{"lat":"48.86263180415945","lon":"2.349732144830979","name":"01006 - GRANDE TRUANDERIE","address":"2-4 rue DE LA GRANDE TRUANDERIE 75001 PARIS","id":201},{"lat":"48.866698008473534","lon":"2.328288185716643","name":"01019 - SAINT HONORE VENDOME","address":"237 RUE SAINT HONORE - 75001 PARIS","id":202},{"lat":"48.869969733968915","lon":"2.3360394555421","name":"02012 - QUATRE SEPTEMBRE","address":"10 RUE DE CHOISEUL - 75002 PARIS","id":203},{"lat":"48.86885168937216","lon":"2.339731401086941","name":"02009 - BOURSE","address":"1 RUE DES FILLES SAINT THOMAS - 75002 PARIS","id":204},{"lat":"48.86829988920071","lon":"2.338089782278504","name":"02011 - BIBLIOTHEQUE NATIONALE","address":"71 RUE DE RICHELIEU - 75002 PARIS","id":205},{"lat":"48.86524062169503","lon":"2.351669873689939","name":"02001 - SEBASTOPOL-GRENATA","address":"12 RUE GRENETA - 75002 PARIS","id":206},{"lat":"48.87144635392104","lon":"2.338290105850787","name":"02013 - RICHELIEU DROUOT","address":"20 RUE FAVART - 75002 PARIS","id":207},{"lat":"48.867467441464115","lon":"2.344526615114217","name":"02021 - CLERY","address":"4 RUE DE CLERY - 75002 PARIS","id":208},{"lat":"48.8691131525953","lon":"2.3325151052685","name":"02014 - SAINT AUGUSTIN","address":"1  3 RUE DAUNOU - 75002 PARIS","id":209},{"lat":"48.86213223497159","lon":"2.364951386893752","name":"03003 - TURENNE BRETAGNE","address":"4 RUE DES FILLES DU CALVAIRE - 75003 PARIS","id":210},{"lat":"48.86749798940664","lon":"2.353660816249226","name":"03012 - GAITE LYRIQUE","address":"FACE 8 RUE SALOMON DE CAUS - 75003 PARIS","id":211},{"lat":"48.85579663740384","lon":"2.357907882135172","name":"04012 - ECOUFFES RIVOLI","address":"2 RUE TIRON - 75004 PARIS","id":212},{"lat":"48.852725972189546","lon":"2.360878343431665","name":"04009 - VILLAGE SAINT PAUL","address":"6 RUE SAINT PAUL - 75004 PARIS","id":213},{"lat":"48.84996003527753","lon":"2.363239868721318","name":"04105 - MORLAND","address":"17 BOULEVARD DU MORLAND - 75004 PARIS","id":214},{"lat":"48.85398414441304","lon":"2.349380045291025","name":"04001 - NOTRE DAME","address":"10 RUE D'ARCOLE - 75004 PARIS","id":215},{"lat":"48.847725125668795","lon":"2.365939153127159","name":"04006 - BASSIN DE L'ARSENAL","address":"FACE 1 BOULEVARD BOURBON - 75004 PARIS","id":216},{"lat":"48.844730256132095","lon":"2.341923944866407","name":"05005 - SAINT JACQUES GAY LUSSAC","address":"27 RUE GAY LUSSAC - 75005 PARIS","id":217},{"lat":"48.8425479496716","lon":"2.344596649931604","name":"05013 - ULM ERASME","address":"13 RUE ERASME - 75005 PARIS","id":218},{"lat":"48.83899382454321","lon":"2.34993205295774","name":"05026 - MOUFFETARD SAINT MEDARD","address":"3 RUE PASCAL - 75005 PARIS","id":219},{"lat":"48.84375698130157","lon":"2.339306721981416","name":"05010 - SAINT MICHEL HENRI BARBUSSE","address":"1 RUE HENRI BARBUSSE - 75005 PARIS","id":220},{"lat":"48.841507637390066","lon":"2.349983047029793","name":"05015 - MOUFFETARD EPEE DE BOIS","address":"12 RUE DE L'EPEE DE BOIS - 75005 PARIS","id":221},{"lat":"48.84186595652607","lon":"2.341202026662388","name":"05004 - SAINT JACQUES VAL DE GRACE","address":"272 RUE SAINT JACQUES - 75005 PARIS","id":222},{"lat":"48.85165117936709","lon":"2.347463334519655","name":"05009 - SQUARE VIVIANI","address":"6 RUE DU FOUARRE - 75005 PARIS","id":223},{"lat":"48.83907826424974","lon":"2.356877340669728","name":"05105 - GEOFFROY SAINT HILAIRE","address":"8 RUE GEOFFROY SAINT HILAIRE - 75005 PARIS","id":224},{"lat":"48.845143494008845","lon":"2.345412681213507","name":"05012 - ULM - LHOMOND","address":"20 RUE DE L'ESTRAPADE - 75005 PARIS","id":225},{"lat":"48.84506225637803","lon":"2.349497789857777","name":"05016 - CONTRESCARPE-THOUIN","address":"1 RUE THOUIN - 75005 PARIS","id":226},{"lat":"48.841739161230905","lon":"2.331552216736739","name":"06010 - MONTPARNASSE CHEVREUSE","address":"5 RUE DE CHEVREUSE - 75006 PARIS","id":227},{"lat":"48.85239300931143","lon":"2.341442522468474","name":"06016 - DANTON","address":"11 RUE DANTON - 75006 PARIS","id":228},{"lat":"48.85971010443503","lon":"2.325809024625026","name":"07007 - MUS\u00c9E D'ORSAY","address":"62 RUE DE LILLE - 75007 PARIS","id":229},{"lat":"48.86164049957625","lon":"2.302250344175951","name":"07022 - PONT DE L'ALMA","address":"3 AVENUE BOSQUET - 75007 PARIS","id":230},{"lat":"48.85495116800671","lon":"2.305478634195716","name":"07019 - ECOLE MILITAIRE","address":"85 AVENUE BOSQUET - 75007 PARIS","id":231},{"lat":"48.860769957997334","lon":"2.314838279495265","name":"07010 - INVALIDES","address":"FACE 3 RUE DE CONSTANTINE - 75007 PARIS","id":232},{"lat":"48.87040913507474","lon":"2.301123191744092","name":"08549 - PLACE DUNANT","address":"39 AVENUE GEORGE V - 75008 PARIS","id":233},{"lat":"48.868165940558264","lon":"2.301274609316824","name":"08047 - GEORGE V","address":"28 AVENUE GEORGE V - 75008 PARIS","id":234},{"lat":"48.87545720024482","lon":"2.315465494584916","name":"08026 - MESSINE","address":"2 AVENUE MESSINE - 75008 PARIS","id":235},{"lat":"48.872787680846464","lon":"2.309722588932229","name":"08033 - SAINT PHILIPPE DU ROULE","address":"1 RUE DU CDT RIVIERE - 75008 PARIS","id":236},{"lat":"48.87288299097443","lon":"2.299972932642669","name":"08052 - WASHINGTON","address":"2 RUE BALZAC - 75008 PARIS","id":237},{"lat":"48.87042188343355","lon":"2.323288994791708","name":"08004 - MALESHERBES PASQUIER","address":"FACE 4 BD MALESHERBES - 75008 PARIS","id":238},{"lat":"48.865194405295554","lon":"2.300249545157282","name":"08046 - ALMA MARCEAU","address":"2 Avenue MARCEAU - 75008 PARIS","id":239},{"lat":"48.87007033911426","lon":"2.304315446715835","name":"08040 - CHAMPS ELYSEES CHARRON","address":"65 RUE PIERRE CHARRON - 75008 PARIS","id":240},{"lat":"48.871512741519155","lon":"2.307487564419454","name":"08050 - BOETIE PONTHIEU","address":"116 RUE DE LA BOETIE - 75008 PARIS","id":241},{"lat":"48.87659994083545","lon":"2.31316505435543","name":"08035 - NARVICK","address":"54 RUE DE LA BIENFAISANCE - 75008 PARIS","id":242},{"lat":"48.87960645718048","lon":"2.314553524187054","name":"08037 - MALSHERBES MONCEAU","address":"75 RUE DE MONCEAU - 75008 PARIS","id":243},{"lat":"48.874179024030234","lon":"2.327778690118609","name":"9104 - CAUMARTIN PROVENCE","address":"115 rue de provence - 75009 PARIS","id":244},{"lat":"48.87685932729332","lon":"2.332762380011633","name":"09029 - TRINITE","address":"62 RUE SAINT LAZARE - 75009 PARIS","id":245},{"lat":"48.879223370628495","lon":"2.349147493536092","name":"09002 - MAUBEUGE CONDORCET","address":"19 RUE D'ABBEVILLE - 75009 PARIS","id":246},{"lat":"48.87789001497427","lon":"2.344785602987212","name":"09108 - ROCHECHOUART MAUBEUGE","address":"25 RUE DE ROCHECHOUART - 75009 PARIS","id":247},{"lat":"48.87939826447722","lon":"2.333709173337285","name":"09026 - BRUYERE PIGALLE","address":"28 RUE J.B.PIGALLE - 75009 PARIS","id":248},{"lat":"48.87334627510507","lon":"2.337980867701675","name":"09022 - LAFITTE ROSSINI","address":"19 RUE ROSSINI - 75009 PARIS","id":249},{"lat":"48.877501465298494","lon":"2.348569373385955","name":"09001 - POISSONNIERE","address":"5 RUE DE BELLEFOND - 75009 PARIS","id":250},{"lat":"48.87428447542072","lon":"2.332976511564311","name":"09031 - PROVENCE","address":"69 RUE DE PROVENCE - 75009 PARIS","id":251},{"lat":"48.87514373494672","lon":"2.338118505144376","name":"09111 - LA FAYETTE PROVENCE","address":"28 RUE DE LA VICTOIRE - 75009 PARIS","id":252},{"lat":"48.88320784122797","lon":"2.330849949028507","name":"09038 - SQUARE BERLIOZ","address":"50 BIS RUE DOUAI - 75009 PARIS","id":253},{"lat":"48.8707649818776","lon":"2.35872446227434","name":"10008 - CITE RIVERIN","address":"12 RUE CITE RIVERIN \/ ANGLE RUE DU CHATEAU D'EAU - 75010 PARIS","id":254},{"lat":"48.88072668576597","lon":"2.351464333201903","name":"10029 - PLACE DE ROUBAIX","address":"39 RUE DE DUNKERQUE - 75010 PARIS","id":255},{"lat":"48.87182588992616","lon":"2.372203224856393","name":"10024 - BUISSON SAINT LOUIS","address":"2 RUE DU BUISSON SAINT LOUIS - 75010 PARIS","id":256},{"lat":"48.87208360886937","lon":"2.35766368561921","name":"10009 - HITTORFF","address":"FACE 14 RUE HITTORFF - 75010 PARIS","id":257},{"lat":"48.87346279870817","lon":"2.364035059250436","name":"10111 - BOURSE DU TRAVAIL","address":"100 QUAI DE JEMMAPES - 75010 PARIS","id":258},{"lat":"48.872939767837096","lon":"2.35403448428308","name":"10006 - PETITES ECURIES","address":"5 RUE DES PETITES ECURIES - 75010 PARIS","id":259},{"lat":"48.870893425955984","lon":"2.353521565011111","name":"10004 - METZ","address":"7 RUE DE METZ - 75010 PARIS","id":260},{"lat":"48.86849994171273","lon":"2.359970049607283","name":"10001 - JOHANN STRAUSS","address":"FACE 50 RUE RENE BOULANGER - 75010 PARIS","id":261},{"lat":"48.87440566621717","lon":"2.373807237995119","name":"10039 - SAMBRE ET MEUSE","address":"37 RUE SAMBRE ET MEUSE - 75010 PARIS","id":262},{"lat":"48.87752002849063","lon":"2.369791245076398","name":"10038 - COLONEL FABIEN","address":"69 RUE DE LA GRANGE AUX BELLES - 75010 PARIS","id":263},{"lat":"48.87503405624492","lon":"2.352184894826549","name":"10019 - PARADIS","address":"23 RUE PARADIS - 75010 PARIS","id":264},{"lat":"48.8761373390584","lon":"2.3680844979417","name":"10115 - DODU","address":"1 - 3 RUE DES ECLUSES SAINT MARTIN - 75010 PARIS","id":265},{"lat":"48.87113994970465","lon":"2.36628044396993","name":"10013 - SAINT LOUIS","address":"2 RUE ALIBERT - 75010 PARIS","id":266},{"lat":"48.865745077094815","lon":"2.365312950780227","name":"11038 - TEMPLE REPUBLIQUE","address":"44 BD DU TEMPLE - 75011 PARIS","id":267},{"lat":"48.8646494198968","lon":"2.369261438255258","name":"11042 - OBERKAMPF","address":"1 RUE DU GRAND PRIEURE - 75011 PARIS","id":268},{"lat":"48.854963800335234","lon":"2.387217085372007","name":"11111 - CHARONNE FROT","address":"31 RUE LEON FROT - 75011 PARIS","id":269},{"lat":"48.85560316202584","lon":"2.390546390619984","name":"11019 - CHARONNE PHILIPPE AUGUSTE","address":"156 RUE DE CHARONNE - 75011 PARIS","id":270},{"lat":"48.86946960532872","lon":"2.371536810663942","name":"11035 - GONCOURT","address":"140 AVENUE PARMENTIER - 75011 PARIS","id":271},{"lat":"48.86530798423503","lon":"2.376019912019568","name":"11030 - SAINT MAUR OBERKAMPF","address":"80 RUE OBERKAMPF - 75011 PARIS","id":272},{"lat":"48.85160266522164","lon":"2.398403047037931","name":"20043 - CHARONNE AVRON","address":"48 BOULEVARD DE CHARONNE - 75011 PARIS","id":273},{"lat":"48.86442014173202","lon":"2.366136374249966","name":"11040 - TEMPLE JEAN PIERRE TIMBAUD","address":"18 BD DU TEMPLE - 75011 PARIS","id":274},{"lat":"48.868","lon":"2.36498","name":"11037 - FAUBOURG DU TEMPLE PLACE DE LA REPUBLIQUE","address":"2 RUE DU FAUBOURG DU TEMPLE - 75011 PARIS","id":275},{"lat":"48.85252900039587","lon":"2.380583632323688","name":"11101 - SQUARE NORDLING","address":"15 RUE CHARLES DELESCLUZE - 75011 PARIS","id":276},{"lat":"48.858445054261914","lon":"2.39039812238911","name":"11021 - PHILIPPE AUGUSTE (20EME ARR.)","address":"212 BOULEVARD CHARONNE - 75011 PARIS","id":277},{"lat":"48.8684101048247","lon":"2.36784149724351","name":"11036 - JULES FERRY FAUBOURG DU TEMPLE","address":"FACE 28 RUE JULES FERRY - 75011 PARIS","id":278},{"lat":"48.858001906023354","lon":"2.381797702650783","name":"11022 - LEON BLUM ROQUETTE","address":"142 RUE DE LA ROQUETTE - 75011 PARIS","id":279},{"lat":"48.858688774062955","lon":"2.383553994571467","name":"11023 - LEO FROT ROQUETTE","address":"2 RUE SAINT MAUR - 75011 PARIS","id":280},{"lat":"48.86082070611917","lon":"2.375636525867217","name":"11041 - SAINT AMBROISE","address":"2 RUE LACHARRIERE - 75011 PARIS","id":281},{"lat":"48.851532005340125","lon":"2.38372328828755","name":"11107 - BIBLIOTHEQUE FAIDHERBE","address":"11 RUE FAIDHERBE - 75011 PARIS","id":282},{"lat":"48.856433706943704","lon":"2.379020587761426","name":"11006 - LEDRU ROLLIN-BASFROI","address":"169 AVENUE LEDRU ROLLIN - 75011 PARIS","id":283},{"lat":"48.839041145908176","lon":"2.437655339082955","name":"12124 - PYRAMIDE ARTILLERIE","address":"ROUTE DE L'ARTILLERIE - 75012 PARIS","id":284},{"lat":"48.840869459702354","lon":"2.387564334932072","name":"12109 - CHAROLAIS","address":"212 RUE DE CHARENTON - 75012 PARIS","id":285},{"lat":"48.84026772485455","lon":"2.379519527723101","name":"12025 - BERCY","address":"FACE 14 PL. DU BATAILLON DU PACIFIQUE - 75012 PARIS","id":286},{"lat":"48.8403981721562","lon":"2.40922942058058","name":"12042 - MONTEMPOIVRE","address":"36-38 boulevard Soult - 75012 PARIS","id":287},{"lat":"48.83749044650707","lon":"2.401825585802231","name":"12010 - MICHEL BIZOT","address":"251 AVENUE DAUMESNIL - 75012 PARIS","id":288},{"lat":"48.850440013404544","lon":"2.378901366211043","name":"12005 - CROZATIER","address":"74 RUE CROZATIER - 75012 PARIS","id":289},{"lat":"48.8394854026542","lon":"2.397212376289136","name":"12037 - DAUMESNIL","address":"53 BOULEVARD DE REUILLY - 75012 PARIS","id":290},{"lat":"48.844312608440106","lon":"2.389595227215854","name":"12013 - RUE MONTGALLET","address":"FACE 39 RUE MONTGALLET - 75012 PARIS","id":291},{"lat":"48.84681513232972","lon":"2.376929360592796","name":"12008 - HECTOR MALOT","address":"15 BIS RUE HECTOR MALOT - 75012 PARIS","id":292},{"lat":"48.843949064031825","lon":"2.415081394834419","name":"12114 - PORTE DE SAINT MANDE","address":"33 AVENUE COURTELINE - 75012 PARIS","id":293},{"lat":"48.83761417037952","lon":"2.397253782195704","name":"12111 - DECAEN CANNEBIERE","address":"73 RUE CLAUDE DECAEN - 75012 PARIS","id":294},{"lat":"48.850735824128805","lon":"2.375870111706245","name":"12004 - TRAVERSIERE","address":"76 RUE TRAVERSIERE - 75012 PARIS","id":295},{"lat":"48.848175129981016","lon":"2.376358449431232","name":"12101 - CHARENTON PRAGUE","address":"89 TER RUE DE CHARENTON - 75012 PARIS","id":296},{"lat":"48.83230838936651","lon":"2.386370278568759","name":"12034 - PIROGUES DE BERCY","address":"20 RUE DES PIROGUES DE BERCY - 75012 PARIS","id":297},{"lat":"48.824695995415006","lon":"2.363106073577468","name":"13037 - IVRY BAUDICOURT","address":"76 AVENUE D'IVRY - 75013 PARIS","id":298},{"lat":"48.83772768745433","lon":"2.360460336476805","name":"13103 - SAINT MARCEL","address":"89 BOULEVARD DE L'HOPITAL - 75013 PARIS","id":299},{"lat":"48.84379047732037","lon":"2.365585665575604","name":"13104 - GARE D'AUSTERLITZ","address":"FACE 109 QUAI D'AUSTERLITZ - 75013 PARIS","id":300},{"lat":"48.83505071580454","lon":"2.376068100310425","name":"13123 - BIBLIOTH\u00c8QUE FRAN\u00c7OIS MITTERAND","address":"53 QUAI FRANCOIS MAURIAC - 75013 PARIS","id":301},{"lat":"48.82884021838649","lon":"2.341967436827206","name":"13107 - MARCHAND SANTE","address":"12 PASSAGE VICTOR MARCHAND - 75013 PARIS","id":302},{"lat":"48.824810840809405","lon":"2.367735489853108","name":"13114 - NATIONALE DUCHAMP (PROP 1)","address":"46 RUE NATIONALE - 75013 PARIS","id":303},{"lat":"48.81625825722598","lon":"2.344181922989554","name":"13027 - MAZAGRAND COUBERTIN","address":"AVENUE DE LA PORTE DE GENTILLY - 75013 PARIS","id":304},{"lat":"48.835092787823875","lon":"2.353468135133752","name":"13007 - LE BRUN GOBELINS","address":"42 RUE LE BRUN - 75013 PARIS","id":305},{"lat":"48.82122766331853","lon":"2.342104214557966","name":"14013 - LIART AMIRAL MOUCHEZ","address":"1 RUE LIARD - 75014 PARIS","id":306},{"lat":"48.834390797006805","lon":"2.329303946545288","name":"14036 - BOULARD DAGUERRE","address":"14 RUE BOULARD - 75014 PARIS","id":307},{"lat":"48.84115621648301","lon":"2.324448789519074","name":"14001 - EDGAR QUINET","address":"13 BOULEVARD EDGAR QUINET - 75014 PARIS","id":308},{"lat":"48.83055599940998","lon":"2.33378329803361","name":"14009 - COTY TOMBE D'ISSOIRE","address":"49 RUE DE LA TOMBE D'ISSOIRE - 75014 PARIS","id":309},{"lat":"48.83788362776244","lon":"2.322551640018162","name":"14035 - MAINE GAITE","address":"90 AVENUE DU MAINE - 75014 PARIS","id":310},{"lat":"48.835064363954","lon":"2.323731449973991","name":"14103 - MAINE LIANCOURT","address":"132 \/ 136 AVENUE DU MAINE - 75014 PARIS","id":311},{"lat":"48.8228575017159","lon":"2.325042670917036","name":"14018 - PORTE D'ORLEANS","address":"6 PLACE DU 25 AOUT 1944 - 75014 PARIS","id":312},{"lat":"48.836850815842105","lon":"2.331303600860387","name":"14003 - RASPAIL SCHOELCHER","address":"2 RUE VICTOR SCHOELCHER - 75014 PARIS","id":313},{"lat":"48.83314079924711","lon":"2.332672227475083","name":"14005 - DENFERT ROCHEREAU","address":"2 AVENUE RENE COTY - 75014 PARIS","id":314},{"lat":"48.82656671997367","lon":"2.313276757777748","name":"14022 - BRUNE DIDOT","address":"108 RUE DIDOT - 75014 PARIS","id":315},{"lat":"48.824489702456674","lon":"2.318447431048976","name":"14021 - PLACE DE LA PORTE DE CHATILLON","address":"BOULEVARD BRUNE PORTE DE CHATILLON - 75014 PARIS","id":316},{"lat":"48.83014719579205","lon":"2.323313445980224","name":"14026 - PLANTES MOULIN VERT","address":"23 RUE DES PLANTES - 75014 PARIS","id":317},{"lat":"48.83217944426036","lon":"2.287122261982559","name":"15049 - PORTE DE VERSAILLES","address":"2 AVENUE ERNEST RENAN - 75015 PARIS","id":318},{"lat":"48.83373383017729","lon":"2.271396472461431","name":"15042 - FARMAN","address":"61 RUE HENRY FARMAN - 75015 PARIS","id":319},{"lat":"48.84041618840877","lon":"2.295464906515111","name":"15037 - GROULT","address":"202 RUE LECOURBE - 75015 PARIS","id":320},{"lat":"48.84071436444365","lon":"2.278018571567725","name":"15059 - CITROEN","address":"RUE BALARD - 75015 PARIS","id":321},{"lat":"48.853844054333514","lon":"2.289705348222022","name":"15026 - BIR HAKEIM","address":"FACE 6 BOULEVARD DE GRENELLE - 75015 PARIS","id":322},{"lat":"48.84341723238589","lon":"2.275108332056225","name":"15103 - SQUARE DES C\u00c9VENNES","address":"01 RUE CAUCHY - 75015 PARIS","id":323},{"lat":"48.845831419610754","lon":"2.301753086991115","name":"15011 - THEBAUD RUE DE CAMBRONNE","address":"32 RUE CAMBRONNE - 75015 PARIS","id":324},{"lat":"48.84817034136516","lon":"2.289906646457531","name":"15031 - THEATRE","address":"60 RUE DU THEATRE - 75015 PARIS","id":325},{"lat":"48.8296843300915","lon":"2.275342586850291","name":"15120 - AVIA","address":"26 RUE DU COLONEL PIERRE AVIA - 75015 PARIS","id":326},{"lat":"48.8365662244334","lon":"2.312707121097412","name":"15027 - GIDE","address":"4 RUE ANDRE GIDE  - 75015 PARIS","id":327},{"lat":"48.844806421735925","lon":"2.297572005982148","name":"15021 - CROIX NIVERT","address":"DEV 2 RUE JOSEPH LOUVILLE - 75015 PARIS","id":328},{"lat":"48.84757532146731","lon":"2.30286310050181","name":"15010 - CAMBRONNE","address":"FACE 3 BD GARIBALDI - 75015 PARIS","id":329},{"lat":"48.83476837934194","lon":"2.284142297394666","name":"15061 - DESNOUETTES","address":"12 SQUARE DESNOUETTES - 75015 PARIS","id":330},{"lat":"48.84709868413047","lon":"2.296238450505518","name":"15022 - ZOLA","address":"143 AVENUE EMILE ZOLA - 75015 PARIS","id":331},{"lat":"48.84132050184004","lon":"2.30808901725357","name":"15014 - VOLONTAIRES","address":"25 RUE DES VOLONTAIRES - 75015 PARIS","id":332},{"lat":"48.84005771883908","lon":"2.304507420961214","name":"15019 - VAUGIRARD CAMBRONNE","address":"3 RUE PAUL BARRUEL - 75015 PARIS","id":333},{"lat":"48.83653728947088","lon":"2.278717697019357","name":"15056 - BALARD","address":"13 PLACE BALARD - 75015 PARIS","id":334},{"lat":"48.83621036148383","lon":"2.281039381009245","name":"15110 - PLACE ROBERT GUILLEMARD","address":"PLACE ROBERT GUILLEMARD - 75015 PARIS","id":335},{"lat":"48.84799219346147","lon":"2.296681685691776","name":"15123 - RUE DU COMMERCE","address":"20 RUE DU COMMERCE - 75015 PARIS","id":336},{"lat":"48.8609983661382","lon":"2.27312852713658","name":"16110 - OCTAVE FEUILLET","address":"4-6 RUE OCTAVE FEUILLET - 75016 PARIS","id":337},{"lat":"48.863025315388256","lon":"2.268806550199479","name":"16019 - HENRI MARTIN","address":"FACE 98 AV. HENRI MARTIN - 75016 PARIS","id":338},{"lat":"48.838713363162405","lon":"2.252191060537607","name":"16044 - STADE FRANCAIS","address":"24 AVENUE DE LA PORTE DE SAINT CLOUD - 75016 PARIS","id":339},{"lat":"48.840610399663696","lon":"2.258373658198948","name":"16118 - MICHEL ANGE","address":"91 RUE MICHEL ANGE - 75016 PARIS","id":340},{"lat":"48.85615074338874","lon":"2.275188414671189","name":"16031 - BOULAINVILLIERS","address":"51 RUE DES VIGNES - 75016 PARIS","id":341},{"lat":"48.86441140945903","lon":"2.272448647646471","name":"16018 - FLANDRIN","address":"2 BOULEVARD FLANDRIN - 75016 PARIS","id":342},{"lat":"48.85838125289731","lon":"2.284129012892127","name":"16023 - RUE DE PASSY","address":"1 RUE DE PASSY - 75016 PARIS","id":343},{"lat":"48.84986918764119","lon":"2.268257387525699","name":"16116 - GEORGES SAND","address":"23 rue Georges Sand - 75016 PARIS","id":344},{"lat":"48.8664391603377","lon":"2.28574594430153","name":"16009 - SAINT DIDIER","address":"32 RUE SAINT DIDIER - 75016 PARIS","id":345},{"lat":"48.84749841771691","lon":"2.26848387135299","name":"16032 - EGLISE D AUTEUIL","address":"PLACE DE L'EGLISE D'AUTEUIL - 75016 PARIS","id":346},{"lat":"48.88896161855884","lon":"2.322528975094376","name":"17004 - LEGENDRE AVENUE DE CLICHY","address":"130 RUE LEGENDRE - 75017 PARIS","id":347},{"lat":"48.88591312825616","lon":"2.293234151072418","name":"17107 - BERTHIER STUART MERRIL","address":"182 BOULEVARD BERTHIER - 75017 PARIS","id":348},{"lat":"48.88185715074461","lon":"2.301138378176729","name":"17026 - WAGRAM COURCELLES","address":"105 RUE JOUFFROY D'ABBANS - 75017 PARIS","id":349},{"lat":"48.88561741628322","lon":"2.290781411279206","name":"17031 - PORTE DE CHAMPERET","address":"PLACE DE LA PORTE DE CHAMPERET - 75017 PARIS","id":350},{"lat":"48.885437730894544","lon":"2.316473835914172","name":"17013 - LEGENDRE","address":"62 RUE LEGENDRE - 75017 PARIS","id":351},{"lat":"48.88287775178599","lon":"2.287667370814871","name":"17041 - PORTE DE VILLIERS","address":"51 RUE GUERSANT - 75017 PARIS","id":352},{"lat":"48.88434112466304","lon":"2.288273752637337","name":"17101 - ALEXANDRE CHARPENTIER","address":"FACE 3 RUE ALEXANDRE CHARPENTIER - 75017 PARIS","id":353},{"lat":"48.885069943671056","lon":"2.307083216664497","name":"17020 - NICARAGUA","address":"49 RUE JOUFFROY D'ABBANS - 75017 PARIS","id":354},{"lat":"48.894768624696255","lon":"2.318885353974425","name":"17010 - JONCQUIERE","address":"90 RUE DE LA JONQUIERE - 75017 PARIS","id":355},{"lat":"48.890020496141","lon":"2.3175909298999","name":"17111 - LEMERCIER","address":"109 RUE LEMERCIER - 75017 PARIS","id":356},{"lat":"48.878410386482805","lon":"2.297831064713626","name":"17045 - PLACE DES TERNES - 5","address":"5 PLACE DES TERNES - 75017 PARIS","id":357},{"lat":"48.881725659667424","lon":"2.283682661669767","name":"17104 - GENERAL KOENIG","address":"2 BOULEVARD AURELLE DE PALADINES - 75017 PARIS","id":358},{"lat":"48.899410681516315","lon":"2.345920133314917","name":"18036 - FRANCIS DE CROISSET","address":"7 RUE FRANCIS DE CROISSET - 75018 PARIS","id":359},{"lat":"48.88949630486821","lon":"2.333393658804396","name":"18111 - FELIZ ZIEM","address":"2 RUE FELIX ZIEM - 75018 PARIS","id":360},{"lat":"48.89453090447961","lon":"2.341541339092219","name":"18029 - POTEAU","address":"1 RUE EMILE BLEMONT - 75018 PARIS","id":361},{"lat":"48.89748845974928","lon":"2.343996499337776","name":"18032 - PORTE DE CLIGNANCOURT","address":"FACE 59 RUE BELLIARD - 75018 PARIS","id":362},{"lat":"48.89013398748709","lon":"2.360504244841426","name":"18010 - MARX DORMOY","address":"81 RUE RIQUET - 75018 PARIS","id":363},{"lat":"48.886665624668375","lon":"2.36151933793529","name":"18110 - DEPARTEMENT","address":"FACE 53 RUE DU DEPARTEMENT - 75018 PARIS","id":364},{"lat":"48.88356474485461","lon":"2.333418629410461","name":"18043 - BLANCHE","address":"55 BOULEVARD DE CLICHY - 75018 PARIS","id":365},{"lat":"48.891213890844654","lon":"2.351288666219873","name":"18023 - POISSONNIERS ORDENER","address":"57 RUE ORDENER - 75018 PARIS","id":366},{"lat":"48.89648283189724","lon":"2.358845525233447","name":"18102 - RUE DE LA CHAPELLE","address":"69 BIS RUE DE LA CHAPELLE - 75018 PARIS","id":367},{"lat":"48.88611466796807","lon":"2.356855627529275","name":"18009 - LEPINE","address":"12 RUE JEAN FRANCOIS LEPINE - 75018 PARIS","id":368},{"lat":"48.89002290339246","lon":"2.342450012678194","name":"18016 - FRANCOEUR CAULAINCOURT","address":"1 RUE FRANCOEUR - 75018 PARIS","id":369},{"lat":"48.8755503947562","lon":"2.389038160847546","name":"19038 - JOURDAIN","address":"9 RUE LASSUS - 75019 PARIS","id":370},{"lat":"48.87712417766737","lon":"2.374276509236151","name":"19118 - BOLIVAR BURNOUF","address":"82 AVENUE SIMON BOLIVAR - 75019 PARIS","id":371},{"lat":"48.894104140316266","lon":"2.372946088467279","name":"19001 - OURCQ CRIMEE","address":"243 RUE DE CRIMEE - 75019 PARIS","id":372},{"lat":"48.90177385172424","lon":"2.372628293645748","name":"19106 - GARE EMGP","address":"15 RUE MADELEINE VIONNET - 75019 PARIS","id":373},{"lat":"48.89849005307383","lon":"2.386120008210507","name":"19115 - PORTE DE LA VILLETTE","address":"1 AVENUE DE LA PORTE DE LA VILLETTE - 75019 PARIS","id":374},{"lat":"48.881472498481","lon":"2.37026248225988","name":"19116 - JAURES VILLETTE","address":"180 BOULEVARD DE LA VILLETTE - 75019 PARIS","id":375},{"lat":"48.88639367943585","lon":"2.386541454435452","name":"19016 - OURCQ","address":"78 RUE D'HAUTPOUL - 75019 PARIS","id":376},{"lat":"48.89594736851349","lon":"2.381133802246315","name":"19033 - CAMBRAI","address":"30 RUE DE CAMBRAI - 75019 PARIS","id":377},{"lat":"48.884316180647176","lon":"2.369829579572023","name":"19003 - QUAI DE SEINE","address":"3 QUAI DE LA SEINE - 75019 PARIS","id":378},{"lat":"48.88259146668893","lon":"2.381220610289335","name":"19021 - MAIRIE DU 19 EME","address":"4 RUE ARMAND CARREL - 75019 PARIS","id":379},{"lat":"48.88339733854529","lon":"2.371074522980134","name":"19004 - QUAI DE LA LOIRE","address":"4 QUAI DE LA LOIRE - 75019 PARIS","id":380},{"lat":"48.8988301928079","lon":"2.37933010909776","name":"19045 - CANAL SAINT DENIS - BD MACDONALD","address":"145 BOULEVARD MCDONALD - 75019 PARIS","id":381},{"lat":"48.89034195521685","lon":"2.397813642189543","name":"19034 - PANTIN","address":"20 AVENUE DE LA PORTE DE PANTIN - 75019 PARIS","id":382},{"lat":"48.8569749400317","lon":"2.408842457406961","name":"20017 - RUE SAINT BLAISE","address":"69 RUE SAINT BLAISE - 75020 PARIS","id":383},{"lat":"48.85352868594103","lon":"2.409615362775532","name":"20133 - RASSELINS","address":"2 RUE DES RASSELINS - 75020 PARIS","id":384},{"lat":"48.85712940035504","lon":"2.404425625176959","name":"20016 - PYRENEES VITRUVE","address":"114 BIS RUE DES PYRENEES - 75020 PARIS","id":385},{"lat":"48.85862166935013","lon":"2.409942553877677","name":"20018 - HARPIGNIES","address":"2 RUE HARPIGNIES- 75020 PARIS","id":386},{"lat":"48.8473310531154","lon":"2.4103900081973","name":"20047 - COURS DE VINCENNES BD DAVOUT","address":"107 COURS DE VINCENNES - 75020 PARIS","id":387},{"lat":"48.868910127448686","lon":"2.392020489286297","name":"20121 - MENILMONTANT BOYER","address":"27 RUE BOYER - 75020 PARIS","id":388},{"lat":"48.872747269036246","lon":"2.408203454302088","name":"20117 - SAINT FARGEAU MORTIER","address":"72 RUE SAINT-FARGEAU - 75020 PARIS","id":389},{"lat":"48.86272646274573","lon":"2.403351311000777","name":"20021 - PRAIRIE L INDRE","address":"2 RUE DE L'INDRE - 75020 PARIS","id":390},{"lat":"48.86535224200028","lon":"2.398946448081101","name":"20106 - MAIRIE DU 20\u00c8ME","address":"44-46 AVENUE GAMBETTA - 75020 PARIS","id":391},{"lat":"48.8694370761222","lon":"2.40539657537972","name":"20109 - SURMELIN HAXO","address":"2 RUE HAXO - 75020 PARIS","id":392},{"lat":"48.87119943139012","lon":"2.37799433828966","name":"20041 - BELLEVILLE","address":"116 BD DE BELLEVILLE - 75020 PARIS","id":393},{"lat":"48.86422186786416","lon":"2.408205411854939","name":"20022 - PORTE DE BAGNOLET","address":"1 RUE GEO CHAVEZ - 75020 PARIS","id":394},{"lat":"48.8615729587877","lon":"2.40568863716159","name":"20108 - HOSPICE DEBROUSSE","address":"142 RUE DE BAGNOLET - 75020 PARIS","id":395},{"lat":"48.86095933229224","lon":"2.400421852042113","name":"20020 - PYRENEES RENOUVIER","address":"183 RUE DES PYRENEES - 75020 PARIS","id":396},{"lat":"48.85392327608324","lon":"2.400038749270361","name":"20012 - BUZENVAL VIGNOLES","address":"90 RUE BUZENVAL - 75020 PARIS","id":397},{"lat":"48.85558642847872","lon":"2.408762907764669","name":"20118 - ORTEAUX MOURAUD","address":"100 RUE DES ORTEAUX - 75020 PARIS","id":398},{"lat":"48.827600424128306","lon":"2.241835191324587","name":"21015 - NATIONALE (BOULOGNE-BILLANCOURT)","address":"39 RUE NATIONALE - 92100 BOULOGNE-BILLANCOURT","id":399},{"lat":"48.83142865005039","lon":"2.241204653436161","name":"21014 - HAMEAU FLEURI (BOULOGNE-BILLANCOURT)","address":"FACE AU 12 RUE DU HAMEAU FLEURIE - 92100 BOULOGNE BILLANCOURT","id":400},{"lat":"48.83486081059702","lon":"2.24786255060931","name":"21019 - VAILLANT (BOULOGNE-BILLANCOURT)","address":"71 AVENUE EDOUARD VAILLANT - 92100 BOULOGNE-BILLANCOURT","id":401},{"lat":"48.84317665587707","lon":"2.246214231580669","name":"21002 - DENFERT ROCHEREAU (BOULOGNE-BILLANCOURT)","address":"PLACE DENFERT ROCHEREAU - 92100 BOULOGNE BILLANCOURT","id":402},{"lat":"48.832274660165","lon":"2.2340164013498","name":"21011 - SILLY (BOULOGNE BILLANCOURT)","address":"153 RUE DE SILLY - 92100 BOULOGNE BILLANCOURT","id":403},{"lat":"48.83199981539791","lon":"2.253719988007252","name":"21020 - REPUBLIQUE 2 (BOULOGNE-BILLANCOURT)","address":"28 Bd de la R\u00e9publique 92100 BOULOGNE BILLANCOURT","id":404},{"lat":"48.8993483537726","lon":"2.29662648341284","name":"21113 - PETIT (CLICHY)","address":"2 RUE PETIT - 92110 CLICHY","id":405},{"lat":"48.90550311453459","lon":"2.310820381708937","name":"21110 - VILLENEUVE (CLICHY)","address":"FACE 51 RUE VILLENEUVE - 92110 CLICHY","id":406},{"lat":"48.89710985013293","lon":"2.309900498213689","name":"21102 - NATIONS UNIES (CLICHY)","address":"PLACE DES NATIONS UNIES - 92110 CLICHY","id":407},{"lat":"48.813080911445375","lon":"2.319787936689348","name":"21208 - CARVES (MONTROUGE)","address":"67 RUE CARVES ANGLE AVENUE HENRI GINOUX - 92120 MONTROUGE","id":408},{"lat":"48.8172449116699","lon":"2.32750599924383","name":"21202 - BARBES (MONTROUGE)","address":"16 RUE BARBES - 92120 MONTROUGE","id":409},{"lat":"48.82412590462087","lon":"2.260645985489782","name":"21305 - MADAULE (ISSY LES MOULINEAUX)","address":"PLACE MADAULE - 92130 ISSY LES MOULINEAUX","id":410},{"lat":"48.821030252865725","lon":"2.251019571526973","name":"21302 - BRIAND (ISSY LES MOULINEAUX)","address":"PLACE DE LA RESISTANCE ANGLE RUE ARISTIDE BRIAND - 92130 ISSY LES MOULINEAUX","id":411},{"lat":"48.820955107880074","lon":"2.260736413345762","name":"21304 - BLUM (ISSY LES MOULINEAUX)","address":"FACE 2 PLACE LEON BLUM - 92100 ISSY LES MOULINEAUX","id":412},{"lat":"48.827470501735846","lon":"2.278549600821535","name":"21311 - GAMBETTA (ISSY LES MOULINEAUX)","address":"FACE AU 40 BOULEVARD GAMBETTA - 92130 ISSY LES MOULINEAUX","id":413},{"lat":"48.8217026998931","lon":"2.285395624828388","name":"21704 - REPUBLIQUE (VANVES)","address":"2 RUE DE LA REPUBLIQUE - 92170 VANVES","id":414},{"lat":"48.89605104637654","lon":"2.296836251513375","name":"23005 - BRIAND (LEVALLOIS)","address":"152 RUE ARISTIDE BRIAND - 92300 LEVALLOIS","id":415},{"lat":"48.89834000227244","lon":"2.285089933584791","name":"23003 - WILSON (LEVALLOIS)","address":"132 RUE DU PRESIDENT WILSON - 92300 LEVALLOIS","id":416},{"lat":"48.8589230268289","lon":"2.44314211823533","name":"31011 - STALINGRAD 2 (MONTREUIL)","address":"27 RUE DE STALINGRAD - 93100 MONTREUIL","id":417},{"lat":"48.868453299036005","lon":"2.417816934736978","name":"31701 - BERTON (BAGNOLET)","address":"3 RUE RAOUL BERTON - 93170 BAGNOLET","id":418},{"lat":"48.85839567854653","lon":"2.414860628003844","name":"31707 - VAILLANT (BAGNOLET)","address":"FACE 70 RUE EDOUARD VAILLANT - 93170 BAGNOLET","id":419},{"lat":"48.881141015697715","lon":"2.424974243066201","name":"32603 - CALMETTE (LES LILAS)","address":"1 ALLEE DOCTEUR CALMETTE - 93260 LES LILAS","id":420},{"lat":"48.9031834065108","lon":"2.368025612608799","name":"33001 - EMGP (AUBERVILLIERS)","address":"EMGP AVENUE DE PORTE DE PARIS \/ PARKING 264 - 93300 AUBERVILLIERS","id":421},{"lat":"48.9113936890419","lon":"2.375281319974922","name":"33011 - FAURE (AUBERVILLIERS)","address":"FACE 172-174 BOULEVARD FELIX FAURE - 93300 AUBERVILLIERS","id":422},{"lat":"48.90259224163092","lon":"2.330513564840273","name":"34002 - PERI (SAINT OUEN)","address":"128 AVENUE GABRIEL PERI \/ AVENUE DU CAPITAINE GLAMER - 93400 SAINT OUEN","id":423},{"lat":"48.900889626876015","lon":"2.324819807804481","name":"34001 - FRUCTIDOR (SAINT OUEN)","address":"FACE 10 RUE FRUCTIDOR \/ FACE BAT 2 LE COLYSEE - 93400 SAINT OUEN","id":424},{"lat":"48.89271966633131","lon":"2.412529571472175","name":"35008 - LOLIVE 2 (PANTIN)","address":"132 RUE JEAN LOLIVE - 93500 PANTIN","id":425},{"lat":"48.8910789762746","lon":"2.402775519686335","name":"35010 - GERVAIS (PANTIN)","address":"1-3 RUE DU PRE SAINT GERVAIS - 93500 PANTIN","id":426},{"lat":"48.89394371318989","lon":"2.418029659686782","name":"35007 - DELESSERT (PANTIN)","address":"1 RUE  BENJAMIN DELESSERT - 93500 PANTIN","id":427},{"lat":"48.89732893682894","lon":"2.400576593854137","name":"35004 - ALLENDE (PANTIN)","address":"AVENUE DE LA GARE - 93500 PANTIN","id":428},{"lat":"48.8104231700653","lon":"2.326969764620641","name":"41103 - BRIAND (ARCUEIL)","address":"AVENUE ARISTIDE BRIAND (CARREFOUR VACHE NOIRE) - 94110 ARCUEIL","id":429},{"lat":"48.850125232056115","lon":"2.455529172111142","name":"41203 - STALINGRAD (FONTENAY-SOUS-BOIS)","address":"14 AVENUE STALINGRAD - 94120 FONTENAY-SOUS-BOIS","id":430},{"lat":"48.84367434144252","lon":"2.46308263962204","name":"41202 - CHARMES (FONTENAY-SOUS-BOIS)","address":"ANGLE AVENUE DES CHARMES \/ AVENUE FOCH - 94120 FONTENAY-SOUS-BOIS","id":431},{"lat":"48.84931182683785","lon":"2.417909769042342","name":"41604 - LAGNY (SAINT MANDE)","address":"126 RUE LAGNY \/ ANGLE AVENUE JOFFRE - 94160 SAINT MANDE","id":432},{"lat":"48.83608867952291","lon":"2.418907594723682","name":"41605 - GENERAL DE GAULLE 2 (SAINT MANDE)","address":"120 AVENUE GENERAL DE GAULLE - 94160 SAINT MANDE","id":433},{"lat":"48.8128905614968","lon":"2.37065026341858","name":"42007 - PIERRE ET MARIE CURIE (IVRY)","address":"Angle Avenue de Verdun et rue Pierre et Marie Curie - 94200 IVRY","id":434},{"lat":"48.81084586456464","lon":"2.383950863420485","name":"42010 - ROBESPIERRE (IVRY)","address":"1 RUE ROBESPIERRE - 94200 IVRY","id":435},{"lat":"48.81444017962381","lon":"2.341070654172592","name":"42504 - MALON (GENTILLY)","address":"FACE 59 RUE BENOIT MALON - 94250 GENTILLY","id":436},{"lat":"48.81576879198393","lon":"2.350476198934541","name":"42505 - FREROT (GENTILLY)","address":"37 RUE CHARLES FREROT - 94250 GENTILLY","id":437},{"lat":"48.81047749960048","lon":"2.358172896462481","name":"42702 - LECLERC (KREMLIN BICETRE)","address":"73 RUE DU GENERAL LECLERC - 94270 LE KREMELIN BICETRE","id":438},{"lat":"48.807211123250035","lon":"2.353852672868236","name":"42701 - GIDE (LE KREMLIN BICETRE)","address":"FACE 50 AVENUE CHARLES GIDE - 94270 LE KREMELIN BICETRE","id":439},{"lat":"48.8095823380351","lon":"2.36268350990116","name":"42703 - FONTAINEBLEAU (KREMLIN BICETRE)","address":"93 AVENUE DE FONTAINEBLEAU - 94270 LE KREMLIN BICETRE","id":440},{"lat":"48.812800296374675","lon":"2.361041166442304","name":"42705 - CONVENTION (LE KREMLIN BICETRE)","address":"1 RUE DE LA CONVENTION - 94270 LE KREMLIN BICETRE","id":441},{"lat":"48.848257752729346","lon":"2.439892899386235","name":"43007 - VORGES (VINCENNES)","address":"4 AVENUE VORGES - 94300 VINCENNES","id":442},{"lat":"48.84696126017499","lon":"2.452237396596088","name":"43009 - MURS DU PARC (VINCENNES)","address":"AVENUE DES MURS DU PARC - 94300 VINCENNES","id":443},{"lat":"48.85041836676044","lon":"2.43451378622076","name":"43004 - MONTREUIL (VINCENNES)","address":"43 RUE DE MONTREUIL - 94300 VINCENNES","id":444},{"lat":"48.848879019004286","lon":"2.426198422131812","name":"43002 - LAGNY (VINCENNES)","address":"1 BIS RUE DE LAGNY - 94300 VINCENNES","id":445},{"lat":"48.8682170167744","lon":"2.330493511399174","name":"01022 - RUE DE LA PAIX","address":"37 RUE CASANOVA - 75001 PARIS","id":446},{"lat":"48.86343050194121","lon":"2.340169767017624","name":"01026 - COLONEL DRIANT","address":"PLACE DU LIEUTENANT HENRI KARCHER - 75001 PARIS","id":447},{"lat":"48.857940092963034","lon":"2.347010058114489","name":"01002 - PLACE DU CHATELET","address":"14 AVENUE VICTORIA - 75001 PARIS","id":448},{"lat":"48.859896314441485","lon":"2.346756667548724","name":"01004 - MARGUERITE DE NAVARRE","address":"12 RUE DES HALLES - 75001 PARIS","id":449},{"lat":"48.86126206976475","lon":"2.349399999750171","name":"01005 - LES HALLES - SEBASTOPOL","address":"3 RUE DE LA COSSONNERIE - 75001 PARIS","id":450},{"lat":"48.86349701996373","lon":"2.334846327550268","name":"01023 - ANDRE MALRAUX MUSEE DU LOUVRE","address":"165 RUE SAINT HONORE - 75001 PARIS","id":451},{"lat":"48.865021945810085","lon":"2.345068440144759","name":"02005 - MONTORGUEIL RUE MONTMARTRE VERSION 2","address":"46 RUE DE MONTMARTRE - 75002 PARIS","id":452},{"lat":"48.87078277953678","lon":"2.345905811394424","name":"02022 - BONNE NOUVELLE SAINT FIACRE","address":"20 RUE SAINT FIACRE - 75002 PARIS","id":453},{"lat":"48.864582377464885","lon":"2.346282111667021","name":"02002 - MONTORGUEIL ETIENNE MARCEL","address":"32 RUE ETIENNE MARCEL - 75002 PARIS","id":454},{"lat":"48.86600263256513","lon":"2.341920411962299","name":"02006 - PLACE DES VICTOIRES","address":"2 RUE D'ABOUKIR - 75002 PARIS","id":455},{"lat":"48.870314763994976","lon":"2.341878566630611","name":"02102 - SAINT MARC","address":"8 RUE SAINT MARC - 75002 PARIS","id":456},{"lat":"48.867123446448645","lon":"2.336686608238879","name":"02007 - CHABANAIS","address":"1 RUE CHABANAIS - 75002 PARIS","id":457},{"lat":"48.86863640502551","lon":"2.355591592778568","name":"03101 - PORTE SAINT MARTIN","address":"62 RUE MESLAY - 75003 PARIS","id":458},{"lat":"48.863062832743175","lon":"2.352839380718154","name":"03014 - GRENIER SAINT LAZARE","address":"FACE 34 RUE GRENIER SAINT LAZARE - 75003 PARIS","id":459},{"lat":"48.85712865130369","lon":"2.351194996458793","name":"04017 - PLACE DE L'HOTEL DE VILLE","address":"7 PLACE DE L'HOTEL DE VILLE - 75004 PARIS","id":460},{"lat":"48.861883102214215","lon":"2.350220976096221","name":"04104 - SEBASTOPOL RAMBUTEAU","address":"FACE 40 BOULEVARD SEBASTOPOL - 75004 PARIS","id":461},{"lat":"48.83712603861059","lon":"2.351433329767636","name":"05027 - GOBELINS","address":"22 AVENUE DES GOBELINS - 75005 PARIS","id":462},{"lat":"48.84969041137042","lon":"2.352970183602024","name":"05019 - POISSY","address":"8-10 RUE DE POISSY - 75005 PARIS","id":463},{"lat":"48.84050866371248","lon":"2.353713552033412","name":"05034 - CENSIER","address":"21 RUE CENSIER - 75005 PARIS","id":464},{"lat":"48.852705647705136","lon":"2.344137763245671","name":"05033 - SAINT SEVERIN","address":"42 RUE SAINT SEVERIN - 75005 PARIS","id":465},{"lat":"48.84819134858432","lon":"2.34183165485398","name":"05106 - CUJAS","address":"22 RUE CUJAS - 75005 PARIS","id":466},{"lat":"48.84479928858768","lon":"2.329337755887181","name":"06006 - NOTRE DAME DES CHAMPS","address":"41 RUE NOTRE DAME DES CHAMPS - 75006 PARIS","id":467},{"lat":"48.85024108719566","lon":"2.327551549210571","name":"06107 - CHERCHE MIDI","address":"29 RUE DU CHERCHE MIDI - 75006 PARIS","id":468},{"lat":"48.8564374096868","lon":"2.334797622948368","name":"06021 - BONAPARTE BEAUX ARTS","address":"17 RUE DES BEAUX ARTS - 75006 PARIS","id":469},{"lat":"48.85525468775053","lon":"2.337539334060287","name":"06013 - JACQUES CALLOT","address":"1 RUE JACQUES CALLOT - 75006 PARIS","id":470},{"lat":"48.85394230916141","lon":"2.33015352476927","name":"06024 - SAINT GERMAIN DES PRES","address":"55 RUE DES SAINTS PERES - 75006 PARIS","id":471},{"lat":"48.84913990321828","lon":"2.325175389412747","name":"06026 - SAINT PLACIDE CHERCHE MIDI","address":"28 RUE SAINT PLACIDE - 75006 PARIS","id":472},{"lat":"48.86137389094257","lon":"2.320131276903925","name":"07009 - ASSEMBLEE NATIONALE","address":"FACE 119 RUE DE LILLE - 75007 PARIS","id":473},{"lat":"48.85167822904787","lon":"2.314633840627834","name":"07014 - SAINT FRANCOIS XAVIER","address":"35 BOULEVARD DES INVALIDES - 75007 PARIS","id":474},{"lat":"48.86288","lon":"2.30652","name":"00908 - PORT DU GROS CAILLOU (STATION MOBILE)","address":"QUAI D'ORSAY - PORT DU GROS CAILLOU - 75007 PARIS","id":475},{"lat":"48.85831864690376","lon":"2.323838437789417","name":"07008 - SOLFERINO","address":"10 RUE DE VILLERSEXEL - 75007 PARIS","id":476},{"lat":"48.857829110709226","lon":"2.319149052579355","name":"07102 - SAINTE CLOTHILDE","address":"FACE 19 RUE CASIMIR PERIER - 75007 PARIS","id":477},{"lat":"48.86970884795243","lon":"2.310714655374236","name":"08031 - ROND POINT DES CHAMPS ELYSEES","address":"2 RUE JEAN MERMOZ - 75008 PARIS","id":478},{"lat":"48.87818887641853","lon":"2.299296003861458","name":"08055 - TERNES COURCELLES","address":"87 BD COURCELLES - 75008 PARIS","id":479},{"lat":"48.86951797934417","lon":"2.302426218841562","name":"08105 - FRANCOIS 1ER LINCOLN","address":"56 RUE FRANCOIS 1ER - 75008 PARIS","id":480},{"lat":"48.868851708234864","lon":"2.298514048803577","name":"08048 - MARCEAU","address":"45 AVENUE MARCEAU - 75008 PARIS","id":481},{"lat":"48.87320440102894","lon":"2.323658830743138","name":"08016 - SQUARE LOUIS XVI","address":"DEV 32 RUE PASQUIER - 75008 PARIS","id":482},{"lat":"48.883318044354574","lon":"2.326207175385489","name":"08012 - CLICHY","address":"10 BOULEVARD DES BATIGNOLLES SUR TPC - 75008 PARIS","id":483},{"lat":"48.866843803252216","lon":"2.315779713410026","name":"08001 - PETIT PALAIS","address":"AV. DUTUIT - 75008 PARIS","id":484},{"lat":"48.873486169349846","lon":"2.320281234210629","name":"08015 - ROQUEPINE","address":"4 RUE ROQUEPINE - 75008 PARIS","id":485},{"lat":"48.876079329226044","lon":"2.322731562049324","name":"08017 - ROCHER","address":"14 RUE ROCHER - 75008 PARIS","id":486},{"lat":"48.87745567681383","lon":"2.309694221419506","name":"08036 - RIO","address":"39 RUE DE LISBONNE - 75008 PARIS","id":487},{"lat":"48.866887649978096","lon":"2.306675575720671","name":"08038 - FRANCOIS 1 ER","address":"22 RUE FRANCOIS 1ER - 75008 PARIS","id":488},{"lat":"48.874750203956566","lon":"2.301771435325988","name":"08053 - FRIEDLAND","address":"PLACE GEORGES GUILLAUMIN - 75008 PARIS","id":489},{"lat":"48.87798402750352","lon":"2.318404862782852","name":"08027 - MAIRIE DU 8 \u00c8ME","address":"28 RUE DE MADRID - 75008 PARIS","id":490},{"lat":"48.871476421300954","lon":"2.313885419949291","name":"08032 - MATIGNON","address":"27 AVENUE MATIGNON - 75008 PARIS","id":491},{"lat":"48.86492098253841","lon":"2.302549182385926","name":"08045 - ALMA","address":"FACE 3 AVENUE MONTAIGNE - 75008 PARIS","id":492},{"lat":"48.87134532710352","lon":"2.300186572268202","name":"08115 - BASSANO","address":"10 RUE VERNET - 75008 PARIS","id":493},{"lat":"48.882633484310816","lon":"2.344884406212207","name":"09005 - SQUARE D'ANVERS","address":"95 RUE DE DUNKERQUE - 75009 PARIS","id":494},{"lat":"48.88291108953936","lon":"2.346319371627125","name":"09004 - ROCHECHOUART GERANDO","address":"19 RUE GUERANDO - 75009 PARIS","id":495},{"lat":"48.87660117136262","lon":"2.345785516803243","name":"09009 - SQUARE MONTHOLON","address":"26 RUE MONTHOLON - 75009 PARIS","id":496},{"lat":"48.8836531972476","lon":"2.349040855034395","name":"09003 - PLACE BARB\u00c8S","address":"PLACE BARBES - 75009 PARIS","id":497},{"lat":"48.88015398585977","lon":"2.33107516002003","name":"09028 - MONCEY BLANCHE","address":"4 RUE MONCEY - 75009 PARIS","id":498},{"lat":"48.873385805429535","lon":"2.33529683976619","name":"09024 - LAFAYETTE TAITBOUT","address":"27 RUE TAITBOUT - 75009 PARIS","id":499},{"lat":"48.825325870060475","lon":"2.310670653467625","name":"14106 - STADE DIDOT","address":"FACE 58 AVENUE MARC SANGNIER - 75014 PARIS","id":500},{"lat":"48.816980981259285","lon":"2.332609687921881","name":"14126 - VAILLANT COUTURIER","address":"155 AVENUE PAUL VAILLANT COUTURIER - 75014 PARIS","id":501},{"lat":"48.83932502506044","lon":"2.320954125728877","name":"14117 - MOUCHOTTE","address":"5 RUE DU COMMANDANT RENE MOUCHOTTE - 75014 PARIS","id":502},{"lat":"48.842842278074414","lon":"2.324441565139471","name":"14127 - ODESSA","address":"5-7 RUE D'ODESSA - 75014 PARIS","id":503},{"lat":"48.832501278703454","lon":"2.325401166692975","name":"14032 - MOUTON DUVERNET - MAIRIE DU 14EME","address":"26 RUE MOUTON DUVERNET - 75014 PARIS","id":504},{"lat":"48.826703941183546","lon":"2.338636324158646","name":"14012 - SIBELLE ALESIA","address":"FACE 2 AVENUE DE LA SIBELLE - 75014 PARIS","id":505},{"lat":"48.81940130486362","lon":"2.34337661053354","name":"14014 - STADE CHARLETY","address":"5 BOULEVARD JOURDAN - 75014 PARIS","id":506},{"lat":"48.83729330936107","lon":"2.317482930639117","name":"14114 - PLACE DE CATALOGNE","address":"4 RUE ALAIN - 75014 PARIS","id":507},{"lat":"48.82503085292528","lon":"2.326412869398186","name":"14019 - SARETTE GENERAL LECLERC","address":"58 RUE SARRETTE - 75014 PARIS","id":508},{"lat":"48.83411714783768","lon":"2.308850015466539","name":"15040 - MONCLAR","address":"33 BIS RUE SAINT AMAND - 75015 PARIS","id":509},{"lat":"48.84629491826888","lon":"2.278413912593796","name":"15064 - JAVEL","address":"DEV 5 AVENUE EMILE ZOLA - 75015 PARIS","id":510},{"lat":"48.83797034201205","lon":"2.287582307043615","name":"15054 - CHANDON","address":"293 RUE LECOURBE - 75015 PARIS","id":511},{"lat":"48.84479039026177","lon":"2.290541560154527","name":"15033 - VIOLET","address":"5 PLACE VIOLET - 75015 PARIS","id":512},{"lat":"48.84040040365445","lon":"2.313117867297474","name":"15113 - FALGUIERE ARSONVAL","address":"2 RUE D'ARSONVAL - 75015 PARIS","id":513},{"lat":"48.839635080561905","lon":"2.300654459291639","name":"15038 - PLACE ADOLPHE CHERIOUX","address":"18 PLACE ADOLPHE CHERIOUX - 75015 PARIS","id":514},{"lat":"48.84717561492764","lon":"2.307052147596786","name":"15009 - SUFFREN","address":"140 AVENUE DE SUFFREN - 75015 PARIS","id":515},{"lat":"48.84244145218906","lon":"2.281070755215898","name":"15109 - CEVENNES","address":"65 - 67 RUE DES CEVENNES - 75015 PARIS","id":516},{"lat":"48.83026939028785","lon":"2.296008076086666","name":"15044 - J DUPRE","address":"65 RUE DANTZIG - 75015 PARIS","id":517},{"lat":"48.84329535889522","lon":"2.283209000018466","name":"15063 - SAINT CHARLES - CONVENTION","address":"59 RUE DE LA CONVENTION - 75015 PARIS","id":518},{"lat":"48.838734408274696","lon":"2.281755540138765","name":"15032 - LOURMEL","address":"112 AVE FELIX FAURE - 75015 PARIS","id":519},{"lat":"48.846383773003375","lon":"2.280008411904129","name":"15065 - HUMBERT","address":"23 RUE EMILE ZOLA - 75015 PARIS","id":520},{"lat":"48.85091460817171","lon":"2.301293384670141","name":"15024 - LAOS","address":"88 AVENUE DE SUFFREN - 75015 PARIS","id":521},{"lat":"48.838758813496995","lon":"2.3109360795034","name":"15112 - FALGUI\u00c8RE LEBRUN","address":"19 RUE VIGEE LEBRUN - 75015 PARIS","id":522},{"lat":"48.8405958674037","lon":"2.315363038202961","name":"15004 - VAUGIRARD PASTEUR","address":"DEV 71 BOULEVARD DE VAUGIRARD - 75015 PARIS","id":523},{"lat":"48.851167240679665","lon":"2.284607607567737","name":"15102 - SQUARE BELA BARTOK","address":"QUAI DE GRENELLE - 75015 PARIS","id":524},{"lat":"48.828174936365855","lon":"2.292587522548244","name":"15045 - PLAINE","address":"AVENUE DE LA PORTE DE LA PLAINE - 75015 PARIS","id":525},{"lat":"48.860116109626574","lon":"2.280840481911055","name":"16016 - PAUL DOUMER \/ LA TOUR","address":"53 AVENUE PAUL DOUMER - 75016 PARIS","id":526},{"lat":"48.857566889784465","lon":"2.280027395306772","name":"16022 - RUE JEAN BOLOGNE","address":"16 RUE JEAN BOLOGNE - 75016 PARIS","id":527},{"lat":"48.86585549636314","lon":"2.282859908979733","name":"16010 - BELLES FEUILLES","address":"4 RUE DES BELLES FEUILLES - 75016 PARIS","id":528},{"lat":"48.870306124369975","lon":"2.285074541420228","name":"16005 - POINCARE VICTOR HUGO","address":"89 AVENUE RAYMOND POINCARE - 75016 PARIS","id":529},{"lat":"48.87669268743692","lon":"2.283457593383419","name":"16101 - MALAKOFF","address":"161 AVENUE MALAKOFF - 75016 PARIS","id":530},{"lat":"48.84509712653168","lon":"2.265724147895062","name":"16038 - RUE MOLITOR","address":"RUE MOLITOR - 75016 PARIS","id":531},{"lat":"48.851359912581465","lon":"2.277697269448623","name":"16029 - MAISON DE RADIO FRANCE","address":"1 RUE GROS - 75016 PARIS","id":532},{"lat":"48.870809428669546","lon":"2.281149007691853","name":"16105 - CREVAUX","address":"1 RUE CREVAUX - 75016 PARIS","id":533},{"lat":"48.86354640344584","lon":"2.286394496925036","name":"16014 - AVENUE D EYLAU","address":"4 AVENUE D'EYLAU - 75016 PARIS","id":534},{"lat":"48.84021933807409","lon":"2.263834191152959","name":"16041 - VERSAILLES","address":"164 AVENUE DE VERSAILLES - 75016 PARIS","id":535},{"lat":"48.84889282099704","lon":"2.257651561474888","name":"16035 - HYPPODROME D AUTEUIL","address":"ALLEE DES FORTIFICATIONS - 75016 PARIS","id":536},{"lat":"48.868144510482075","lon":"2.296149600985935","name":"16015 - RUE DE BASSANO","address":"1 RUE DE BASSANO - 75016 PARIS","id":537},{"lat":"48.862081867033794","lon":"2.261746386041142","name":"16129 - BOIS DE BOULOGNE \/ PORTE DE LA MUETTE 1","address":"CHEMIN DE LA CEINTURE DU LAC INTERIEUR \/ AVENUE DE SAINT CLOUD - 75016 PARIS","id":538},{"lat":"48.843104494735165","lon":"2.259821391742079","name":"16040 - EXELMANS","address":"73 BIS BOULEVARD EXELMANS - 75016 PARIS","id":539},{"lat":"48.87356870686902","lon":"2.281512522529856","name":"16102 - PERGOL\u00c8SE\/ MARBEAU","address":"52-54 RUE PERGOL\u00c8SE - 75016 PARIS","id":540},{"lat":"48.875095937895146","lon":"2.24921698799858","name":"16124 - S\u00c8VRES NEUILLY","address":"Route de S\u00e8vres \u00e0 Neuilly - 75016 PARIS","id":541},{"lat":"48.858427696615","lon":"2.274308524144912","name":"16021 - RUE FRANCOIS PONSARD","address":"1 RUE FRANCOIS PONSARD - 75016 PARIS","id":542},{"lat":"48.891834448210986","lon":"2.300144659954865","name":"17116 - REIMS","address":"6 BOULEVARD DE REIMS - 75017 PARIS","id":543},{"lat":"48.896181267908254","lon":"2.318020679358361","name":"17108 - BESSIERES","address":"102 BOULEVARD BESSIERES - 75017 PARIS","id":544},{"lat":"48.89032998912038","lon":"2.319730559929781","name":"17005 - BROCHANT","address":"43 RUE BROCHANT - 75017 PARIS","id":545},{"lat":"48.89792240854517","lon":"2.32851451022192","name":"17044 - PORTE DE SAINT OUEN","address":"1 AVENUE DE LA PORTE DE SAINT OUEN - 75017 PARIS","id":546},{"lat":"48.884101293163106","lon":"2.322206025347343","name":"17012 - MAIRIE DU 17EME","address":"FACE 16 RUE DES BATIGNOLLES - 75017 PARIS","id":547},{"lat":"48.881830717500975","lon":"2.292140665828861","name":"17037 - BAYERN PEREIRE","address":"40 RUE BAYEN - 75017 PARIS","id":548},{"lat":"48.87617438949852","lon":"2.288247405087516","name":"17038 - ARGENTINE","address":"42 AVENUE DE LA GRANDE ARMEE - 75017 PARIS","id":549},{"lat":"48.88714045186671","lon":"2.314521605640858","name":"17017 - PONT CARDINET","address":"167 RUE DE ROME - 75017 PARIS","id":550},{"lat":"48.893400392981874","lon":"2.336266523912805","name":"18027 - DAMREMONT ORDENER","address":"102 RUE DAMREMONT - 75018 PARIS","id":551},{"lat":"48.89045112096476","lon":"2.349057392968696","name":"18022 - BARBES MARCADET","address":"57 RUE MARCADET - 75018 PARIS","id":552},{"lat":"48.88727464264267","lon":"2.332648363845394","name":"18001 - DAMREMONT CAULAINCOURT","address":"6 RUE DAMREMONT - 75018 PARIS","id":553},{"lat":"48.896328348515986","lon":"2.333390423834684","name":"18034 - LEIBNITZ","address":"50 RUE LEIBNITZ - 75018 PARIS","id":554},{"lat":"48.888864896056646","lon":"2.355966721417555","name":"18012 - DOUDEAUVILLE STEPHENSON","address":"51 RUE STEPHENSON - 75018 PARIS","id":555},{"lat":"48.891457726153774","lon":"2.348636478060487","name":"18024 - CLIGNANCOURT MARCADET","address":"105 RUE DE CLIGNANCOURT - 75018 PARIS","id":556},{"lat":"48.89740678787196","lon":"2.352526659355508","name":"18105 - BELIARD POISSONNIERS","address":"157 BIS-159 RUE DES POISSONNIERS - 75018 PARIS","id":557},{"lat":"48.886667026375136","lon":"2.353213071624058","name":"18008 - SQUARE LEON","address":"FACE 36 RUE CAVE - 75018 PARIS","id":558},{"lat":"48.884482392727506","lon":"2.338812297029362","name":"18004 - ABBESSES","address":"2 RUE DE LA VIEUVILLE - 75018 PARIS","id":559},{"lat":"48.88959697085082","lon":"2.362853604262514","name":"18109 - RIQUET PAJOL","address":"55 RUE PAJOL - 75018 PARIS","id":560},{"lat":"48.895090329766326","lon":"2.368694139840156","name":"18108 - EVANGILE","address":"61 RUE DE L'EVANGILE - 75018 PARIS","id":561},{"lat":"48.89092238296793","lon":"2.344986482110517","name":"18021 - MARCADET - RAMEY","address":"98 RUE MARCADET - 75018 PARIS","id":562},{"lat":"48.876468339733144","lon":"2.392284629788502","name":"19028 - PLACE DES FETES","address":"17 RUE DES FETES - 75019 PARIS","id":563},{"lat":"48.87927519569598","lon":"2.378637021920256","name":"19114 - MANIN SECRETAN","address":"31 RUE MANIN - 75019 PARIS","id":564},{"lat":"48.881447321103366","lon":"2.3734047671616","name":"19022 - BOLIVAR","address":"53 RUE DE MEAUX - 75019 PARIS","id":565},{"lat":"48.89067812943125","lon":"2.376142468863619","name":"19006 - MATHIS","address":"6 RUE MATHIS - 75019 PARIS","id":566},{"lat":"48.88573329985865","lon":"2.397846415383189","name":"19035 - PORTE CHAUMONT","address":"RUE SIGMUND FREUD \/ PORTE CHAUMONT - 75019 PARIS","id":567},{"lat":"48.8805744614225","lon":"2.376853000562019","name":"19119 - BOURET PAILLERON","address":"20 RUE EDOUARD PAILLERON - 75019 PARIS","id":568},{"lat":"48.88466206560529","lon":"2.390209687445294","name":"19020 - MANIN HAUTPOUL","address":"4-6 RUE GOUBET - 75019 PARIS","id":569},{"lat":"48.88477085803391","lon":"2.392093119901052","name":"19103 - MANIN CARRIERES","address":"139 RUE MANIN - 75019 PARIS","id":570},{"lat":"48.87792341192515","lon":"2.395985553624166","name":"19113 - PRE ST GERVAIS","address":"27 RUE DU PRE SAINT GERVAIS - 75019 PARIS","id":571},{"lat":"48.9011641133776","lon":"2.388590733869235","name":"19010 - PORTE DE LA VILLETTE","address":"RUE EMILE REYNAUD SUR TPC - 75019 PARIS","id":572},{"lat":"48.87563618071149","lon":"2.399461451982782","name":"19040 - TELEGRAPHE","address":"265 RUE DE BELLEVILLE - 75019 PARIS","id":573},{"lat":"48.888013281448345","lon":"2.373759595522922","name":"19005 - RIQUET","address":"56 AVENUE DE FLANDRE - 75019 PARIS","id":574},{"lat":"48.889351453486974","lon":"2.370774488055213","name":"19002 - TANGER","address":"45 & 48 RUE RIQUET - 75019 PARIS","id":575},{"lat":"48.8779512535706","lon":"2.381464662877906","name":"19024 - BUTTES CHAUMONT","address":"28 \/ 30 RUE BOTZARIS - 75019 PARIS","id":576},{"lat":"48.875518068648745","lon":"2.392960787279829","name":"19121 - BELLEVILLE PRE SAINT GERVAIS","address":"195 RUE DE BELLEVILLE - 75019 PARIS","id":577},{"lat":"48.86941289116132","lon":"2.395039981220676","name":"20035 - PYRENEES","address":"262 RUE DES PYRENEES - 75020 PARIS","id":578},{"lat":"48.863411107404715","lon":"2.387133957573714","name":"20030 - PERE LACHAISE","address":"54 BOULEVARD MENILMONTANT - 75020 PARIS","id":579},{"lat":"48.87215737993568","lon":"2.391739173776302","name":"20042 - PYRENEES ERMITAGE","address":"300 RUE DES PYRENEES - 75020 PARIS","id":580},{"lat":"48.8653941647232","lon":"2.397814475307571","name":"20025 - GAMBETTA GATINES","address":"13 RUE DES GATINES - 75020 PARIS","id":581},{"lat":"48.859358523592554","lon":"2.389613136684456","name":"20131 - REPOS","address":"41 RUE DU REPOS - 75020 PARIS","id":582},{"lat":"48.87195626635528","lon":"2.384981390278095","name":"20113 - PARC DE BELLEVILLE","address":"30 RUE PIAT - 75020 PARIS","id":583},{"lat":"48.87068263384462","lon":"2.398959602331646","name":"20036 - MENILMONTANT - PELLEPORT","address":"164 RUE DE MENILMONTANT - 75020 PARIS","id":584},{"lat":"48.86346964122224","lon":"2.409670100215905","name":"20045 - LOUIS GANNE","address":"3-5 RUE LOUIS GANNE - 75020 PARIS","id":585},{"lat":"48.852566752033766","lon":"2.403928068708116","name":"20132 - REUNION","address":"4 RUE DE LA REUNION - 75020 PARIS","id":586},{"lat":"48.864295696165875","lon":"2.398228667282044","name":"20024 - GAMBETTA - P\u00c8RE LACHAISE","address":"11 RUE MALTE BRUN - 75020 PARIS","id":587},{"lat":"48.85402328452585","lon":"2.412058016605679","name":"20009 - DOCTEUR DEJERINE","address":"RUE DES DOCTEURS DEJERINE - 75020 PARIS","id":588},{"lat":"48.86804941024793","lon":"2.385133097618902","name":"20033 - ETIENNE DOLET","address":"29 RUE ETIENNE DOLLET - 75020 PARIS","id":589},{"lat":"48.84706441752541","lon":"2.416022960021078","name":"20004 - PORTE DE VINCENNES BIS","address":"10 RUE DU COMMANDANT L'HERMINIER - 75020 PARIS","id":590},{"lat":"48.85616737956336","lon":"2.394825009354706","name":"20014 - ALEXANDRE DUMAS","address":"142 BD CHARONNE - 75020 PARIS","id":591},{"lat":"48.84064929857331","lon":"2.227978774754288","name":"21007 - RHIN DANUBE (BOULOGNE BILLANCOURT)","address":"15 ROND POINT RHIN DANUBE - 92100 BOULOGNE BILLANCOURT","id":592},{"lat":"48.834953979664654","lon":"2.241688247102405","name":"21005 - MORIZET (BOULOGNE-BILLANCOURT)","address":"20 AVENUE ANDRE MORIZET - 92100 BOULOGNE-BILLANCOURT","id":593},{"lat":"48.830586296160526","lon":"2.23449077993291","name":"21012 - LECLERC (BOULOGNE-BILLANCOURT)","address":"745 AVENUE DU GENERAL LECLERC - 92100 BOULOGNE-BILLANCOURT","id":594},{"lat":"48.90146015675393","lon":"2.31712992065507","name":"21103 - HUGO (CLICHY)","address":"94-98 BOULEVARD VICTOR HUGO - 92110 CLICHY","id":595},{"lat":"48.81251090819872","lon":"2.325680623044519","name":"21203 - BRIAND (MONTROUGE)","address":"PLACE JULES FERRY \/ AVENUE ARISTIDE BRIAND - 92120 MONTROUGE","id":596},{"lat":"48.8182337326032","lon":"2.32088453254631","name":"21206 - PERI (MONTROUGE)","address":"35\/37 RUE GABRIEL PERI - 92120 MONTROUGE","id":597},{"lat":"48.82371847766811","lon":"2.272254454061792","name":"21309 - CRESSON 2 (ISSY LES MOULINEAUX)","address":"1 BIS AVENUE VICTOR CRESSON - 92130 ISSY LES MOULINEAUX","id":598},{"lat":"48.81948999388875","lon":"2.253869419958486","name":"21301 - SAINT VINCENT (ISSY LES MOULINEAUX)","address":"21 RUE SAINT VINCENT - 92130 ISSY LES MOULINEAUX","id":599},{"lat":"48.838431825491696","lon":"2.340794666870659","name":"14004 - PORT ROYAL COCHIN","address":"111 BD PORT ROYAL - 75014 PARIS","id":600},{"lat":"48.833190318752514","lon":"2.336933391248149","name":"14006 - SAINT JACQUES TOMBE ISSOIRE","address":"46 BOULEVARD SAINT JACQUES - 75014 PARIS","id":601},{"lat":"48.822782442043376","lon":"2.330537540381845","name":"14017 - JOURDAN TOMBE ISSOIRE","address":"160 RUE TOMBE ISSOIRE - 75014 PARIS","id":602},{"lat":"48.820150107758145","lon":"2.339926428187734","name":"14015 - CITE UNIVERSITAIRE","address":"FACE 15 BOULEVARD JOURDAN - 75014 PARIS","id":603},{"lat":"48.834658862792736","lon":"2.295789480315903","name":"15111 - SERRES","address":"48 RUE OLIVIER DE SERRES - 75015 PARIS","id":604},{"lat":"48.84319882807092","lon":"2.322257377279243","name":"15118 - PLACE BIENVENUE","address":"11 RUE DE L'ARRIVEE - 75015 PARIS","id":605},{"lat":"48.83922209776229","lon":"2.291540507948998","name":"15053 - LECOURBE","address":"250 RUE LECOURBE - 75015 PARIS","id":606},{"lat":"48.84132525980798","lon":"2.318291551592712","name":"15115 - VAUGIRARD","address":"25-31 BOULEVARD DE VAUGIRARD - 75015 PARIS","id":607},{"lat":"48.83863387153602","lon":"2.278274193061826","name":"15070 - BLANC","address":"88 RUE BALARD - 75015 PARIS","id":608},{"lat":"48.85276674352813","lon":"2.297876431467921","name":"15105 - SUFFREN F\u00c9D\u00c9RATION","address":"84 RUE DE LA FEDERATION - 75015 PARIS","id":609},{"lat":"48.841249336041045","lon":"2.288386600849503","name":"15069 - BOUCICAUT FAURE","address":"41 AVENUE FELIX FAURE - 75015 PARIS","id":610},{"lat":"48.843542735006295","lon":"2.306558615574665","name":"15013 - LECOURBE VOLONTAIRE","address":"DEV 1 RUE DES VOLONTAIRES - 75015 PARIS","id":611},{"lat":"48.835524753591024","lon":"2.302621940941139","name":"15122 - PLACE CHARLES VALLIN","address":"PLACE CHARLES VALLIN - 75015 PARIS","id":612},{"lat":"48.8290542164508","lon":"2.301417436043831","name":"15043 - BRANCION","address":"122 RUE BRANCION - 75015 PARIS","id":613},{"lat":"48.84308531746595","lon":"2.320263946784738","name":"15002 - BOURDELLE","address":"26 AVENUE DU MAINE - 75015 PARIS","id":614},{"lat":"48.84180717987971","lon":"2.319510026901171","name":"15003 - GARE DE MONTPARNASSE","address":"TP DU 1-13 BOULEVARD DE VAUGIRARD - 75015 PARIS","id":615},{"lat":"48.83657566425033","lon":"2.306874517122675","name":"15018 - ALLERAY","address":"85 RUE DUTOT - 75015 PARIS","id":616},{"lat":"48.836709496490144","lon":"2.283692380806422","name":"15055 - VASCO DE GAMA","address":"44 RUE VASCO DE GAMA - 75015 PARIS","id":617},{"lat":"48.85286124871689","lon":"2.268483570651513","name":"16027 - JASMIN","address":"79 AV MOZART- 75016 PARIS","id":618},{"lat":"48.837555260014625","lon":"2.257972572706903","name":"16042 - PORTE DE SAINT CLOUD","address":"120 BOULEVARD MURAT - 75016 PARIS","id":619},{"lat":"48.84842761367387","lon":"2.265253821160005","name":"16033 - MICHEL ANGE AUTEUIL","address":"85 RUE JEAN DE LA FONTAINE - 75016 PARIS","id":620},{"lat":"48.87793081716105","lon":"2.278959824969939","name":"16003 - ANDRE MAUROIS","address":"2 BIS BOULEVARD ANDRE MAUROIS - 75016 PARIS","id":621},{"lat":"48.86387513126816","lon":"2.281890736577358","name":"16108 - SABLONS","address":"40 RUE DES SABLONS - 75016 PARIS","id":622},{"lat":"48.84524431387353","lon":"2.256939537401627","name":"16036 - PORTE MOLITOR","address":"PLACE DE LA PORTE MOLITOR - 75016 PARIS","id":623},{"lat":"48.898773792804256","lon":"2.322478477864687","name":"17008 - PORCHE POUCHET","address":"7 PLACE ARNAUD TZANCK - 75017 PARIS","id":624},{"lat":"48.8794303755264","lon":"2.303467406687128","name":"17025 - COURCELLES","address":"2 RUE DE CHAZELLES - 75017 PARIS","id":625},{"lat":"48.883769733273496","lon":"2.29858466343129","name":"17047 - COURCELLES - DEMOURES","address":"172 RUE DE COURCELLES - 75017 PARIS","id":626},{"lat":"48.88790134553051","lon":"2.324400445437174","name":"17002 - LA FOURCHE RUE DE LA CONDAMINE","address":"4 RUE DE LA CONDAMINE - 75017 PARIS","id":627},{"lat":"48.87815529789739","lon":"2.288518047864942","name":"17039 - PLACE SAINT FERDINAND","address":"26 RUE SAINT FERDINAND - 75017 PARIS","id":628},{"lat":"48.89058621555025","lon":"2.303457408685266","name":"17023 - AVENUE DE LA PORTE D'ASNI\u00c8RES","address":"22 AVENUE DE LA PORTE D'ASNIERES - 75017 PARIS","id":629},{"lat":"48.89282296302349","lon":"2.326803489834799","name":"17001 - GUY MOCQUET","address":"RUE GUY MOCQUET - 75017 PARIS","id":630},{"lat":"48.883498081948446","lon":"2.28201558962579","name":"17105 - PALADINES","address":"18 BOULEVARD D'AURELLE DE PALADINES - 75017 PARIS","id":631},{"lat":"48.89434509295415","lon":"2.312593886564347","name":"17106 - BERTHIER PORTE DE CLICHY","address":"4 BOULEVARD BERTHIER - 75017 PARIS","id":632},{"lat":"48.887070607581215","lon":"2.304111124531457","name":"17022 - PLACE DE WAGRAM","address":"67 BOULEVARD PEREIRE - 75017 PARIS","id":633},{"lat":"48.88240228540158","lon":"2.314000411222978","name":"17048 - TOCQUEVILLE","address":"12 RUE DE TOCQUEVILLE - 75017 PARIS","id":634},{"lat":"48.89876008065392","lon":"2.329558517454781","name":"17115 - PORTE DE SAINT OUEN","address":"22 AVENUE DE LA PORTE DE SAINT OUEN - 75017 PARIS","id":635},{"lat":"48.88526331365403","lon":"2.298286466799226","name":"17027 - PEREIRE LEVALLOIS","address":"121 BOULEVARD PEREIRE - 75017 PARIS","id":636},{"lat":"48.882728090545086","lon":"2.336262639016585","name":"18042 - PIGALLE GERMAIN PILLON","address":"FACE 36 BOULEVARD DE CLICHY - 75018 PARIS","id":637},{"lat":"48.89284571116732","lon":"2.363429016279767","name":"18011 - HERBERT","address":"85 RUE PAJOL - 75018 PARIS","id":638},{"lat":"48.892656891991216","lon":"2.359435454901881","name":"18104 - CHAPELLE","address":"2 IMPASSE DE LA CHAPELLE - 75018 PARIS","id":639},{"lat":"48.88219420395092","lon":"2.340651849622331","name":"18041 - MARTYRS 2","address":"FACE 112 BOULEVARD DE ROCHECHOUART - 75018 PARIS","id":640},{"lat":"48.88794016394694","lon":"2.326124420314341","name":"18046 - FOURCHE","address":"12 RUE ETIENNE JOGELLE - 75018 PARIS","id":641},{"lat":"48.889677905028066","lon":"2.338178714426107","name":"18017 - PECQUEUR","address":"93 RUE COULAINCOURT - 75018 PARIS","id":642},{"lat":"48.88470686398326","lon":"2.35358041022707","name":"18107 - CHARTRES","address":"22-24 RUE DE CHARTRES - 75018 PARIS","id":643},{"lat":"48.885257971348466","lon":"2.334617735640665","name":"18114 - LEPIC VERON","address":"35 RUE VERON - 75018 PARIS","id":644},{"lat":"48.892925653432606","lon":"2.344517921162641","name":"18025 - MAIRIE DU 18 EME","address":"81 RUE MONT-CENIS - 75018 PARIS","id":645},{"lat":"48.88530162190401","lon":"2.347211037538656","name":"18002 - CLIGNANCOURT","address":"25 RUE DE CLIGNANCOURT - 75018 PARIS","id":646},{"lat":"48.89104123261663","lon":"2.340014585442034","name":"18020 - RUISSEAU","address":"31 RUE FRANCOEUR - 75018 PARIS","id":647},{"lat":"48.88519800938002","lon":"2.349941991688297","name":"18007 - GOUTTE D' OR","address":"65 RUE DE LA GOUTTE D'OR - 75018 PARIS","id":648},{"lat":"48.89890275343664","lon":"2.364732494174034","name":"18103 - CHARLES HERMITE","address":"45 RUE CHARLES HERMITE - 75018 PARIS","id":649},{"lat":"48.886456815828815","lon":"2.332897827913839","name":"18003 - JOSEPH DE MAISTRE LEPIC","address":"2 RUE JOSEPH DE MAISTRE - 75018 PARIS","id":650},{"lat":"48.886627148560976","lon":"2.326293689316426","name":"18045 - GANNERON","address":"2 RUE PIERRE GINIER - 75018 PARIS","id":651},{"lat":"48.88778177066001","lon":"2.350517738222509","name":"18013 - CHATEAU ROUGE","address":"28 RUE POULET - 75018 PARIS","id":652},{"lat":"48.875070404063074","lon":"2.382591714979966","name":"19101 - SIMON BOLIVAR","address":"36 AVENUE SIMON BOLIVAR - 75019 PARIS","id":653},{"lat":"48.8830298392804","lon":"2.38634884002286","name":"19031 - MANIN CRIMEE","address":"8 RUE MANIN - 75019 PARIS","id":654},{"lat":"48.88195317244523","lon":"2.392496216649528","name":"19026 - DANUBE","address":"53 RUE MIGUEL HIDALGO - 75019 PARIS","id":655},{"lat":"48.8933800500227","lon":"2.38499975689617","name":"19011 - ROUVET DAMPIERRE","address":"2 RUE ROUVET - 75019 PARIS","id":656},{"lat":"48.8743491365289","lon":"2.38609537399646","name":"19041 - PYR\u00c9N\u00c9ES","address":"101 RUE DE BELLEVILLE - 75019 PARIS","id":657},{"lat":"48.89270999207067","lon":"2.379199748024915","name":"19007 - OURCQ-FLANDRES","address":"139 AVENUE DE FLANDRE - 75019 PARIS","id":658},{"lat":"48.87315262385819","lon":"2.379855610627962","name":"19102 - BELLEVILLE RAMPAL","address":"4 RUE DE RAMPAL - 75019 PARIS","id":659},{"lat":"48.879930415528435","lon":"2.400950502014892","name":"19036 - HOPITAL ROBERT DEBRE","address":"AV DE LA PTE DU PRES SAINT GERVAIS \/ ANGLE BD D'ALGERIE - 75019 PARIS","id":660},{"lat":"48.89465024997023","lon":"2.381868729508476","name":"19008 - CORENTIN CARIOU","address":"177 AVENUE DE FLANDRE - 75019 PARIS","id":661},{"lat":"48.881769793858254","lon":"2.403179367969562","name":"19124 - ALEXANDER FLEMMING","address":"RUE ALEXANDER FLEMMING - 75019 PARIS","id":662},{"lat":"48.85550135398888","lon":"2.405168520639166","name":"20011 - PYR\u00c9N\u00c9ES-DAGORNO","address":"103 RUE DES PYRENNEES - 75020 PARIS","id":663},{"lat":"48.8691543609174","lon":"2.40932246879487","name":"20027 - PORTE DE MENILMONTANT","address":"1 rue Vidal de la Blache \/ Angle 78 boulevard Mortier - 75020 PARIS","id":664},{"lat":"48.873338225236466","lon":"2.413239879550039","name":"20120 - NOISY LE SEC","address":"1 RUE EVARISTE GALOIS - 75020 PARIS","id":665},{"lat":"48.86024012095245","lon":"2.408758427822183","name":"20122 - DAVOUT VITRUVE","address":"98 RUE VITRUVE - 75020 PARIS","id":666},{"lat":"48.85255339271965","lon":"2.415542372109208","name":"20105 - GAUMONT","address":"AVENUE BENOIT FRACHON - 75020 PARIS","id":667},{"lat":"48.8738036229888","lon":"2.396012223300534","name":"20002 - PIXERECOURT","address":"FACE 65 RUE PIXERECOURT - 75020 PARIS","id":668},{"lat":"48.86518641284941","lon":"2.394468581137673","name":"20028 - GAMBETTA MARTIN NADAUD","address":"FACE 2 RUE ORFILA - 75020 PARIS","id":669},{"lat":"48.8685264710698","lon":"2.389795409535456","name":"20034 - SORBIER - M\u00c9NILMONTANT","address":"1 RUE SORBIER - 75020 PARIS","id":670},{"lat":"48.851617204998654","lon":"2.401513597307666","name":"20007 - BUZENVAL","address":"52 RUE BUZENVAL - 75020 PARIS","id":671},{"lat":"48.867362297165805","lon":"2.396222890988687","name":"20111 - L'ISLE ADAM PYREN\u00c9ES","address":"60 RUE VILLIERS DE L'ISLE ADAM - 75020 PARIS","id":672},{"lat":"48.8456381388333","lon":"2.23701147134366","name":"21003 - JAURES 1 (BOULOGNE-BILLANCOURT)","address":"2 BOULEVARD JEAN JAURES -  92100 BOULOGNE-BILLANCOURT","id":673},{"lat":"48.903621012155874","lon":"2.306228565729878","name":"21108 - VILLENEUVE 2 (CLICHY)","address":"6-8 RUE VILLENEUVE - 92110 CLICHY","id":674},{"lat":"48.815529633678416","lon":"2.317029863731327","name":"21207 - VERDIER (MONTROUGE)","address":"AVENUE VERDIER ANGLE AVENUE DE LA REPUBLIQUE - 92120 MONTROUGE","id":675},{"lat":"48.816290677003934","lon":"2.311279543410485","name":"21201 - JAURES (MONTROUGE)","address":"6 PLACE JEAN JAURES \/ RUE MAURICE ARNOUX ET RUE CAMILLE PELLETIN - 92120 MONTROUGE","id":676},{"lat":"48.829743387678306","lon":"2.263816341546103","name":"21306 - LAFAYETTE (ISSY LES MOULINEAUX)","address":"PLACE LAFAYETTE - 92130 ISSY LES MOULINEAUX","id":677},{"lat":"48.82267836713668","lon":"2.26863109328801","name":"21307 - CRESSON 1 (ISSY LES MOULINEAUX)","address":"FACE 36 AVENUE VICTOR CRESSON - 92130 ISSY LES MOULINEAUX","id":678},{"lat":"48.823599644256994","lon":"2.288819729513169","name":"21705 - HUGO (VANVES)","address":"11 AVENUE VICTOR HUGO - 92170 VANVES","id":679},{"lat":"48.8827499154713","lon":"2.27740638127753","name":"22012 - MICHELIS (NEUILLY)","address":"32 RUE DE MADELEINE MICHELIS - 92200 NEUILLY","id":680},{"lat":"48.886704983104785","lon":"2.261263518031739","name":"22003 - BEFFROY (NEUILLY)","address":"3 RUE BEFFROY - 92200 NEUILLY","id":681},{"lat":"48.88780106859287","lon":"2.278072424368198","name":"22014 - HUGO (NEUILLY)","address":"35 BOULEVARD VICTOR HUGO - 92200 NEUILLY","id":682},{"lat":"48.885140053090865","lon":"2.267800008253524","name":"22013 - SAINTE FOY (NEUILLY)","address":"2 rue de Ch\u00e9zy - 92200 NEUILLY","id":683},{"lat":"48.82183564791793","lon":"2.313458608254228","name":"22403 - BROSSOLETTE (MALAKOFF)","address":"FACE 35 AVENUE PIERRE BROSSOLETTE - 92240 MALAKOFF","id":684},{"lat":"48.81933915840963","lon":"2.300476865047907","name":"22405 - NORD (MALAKOFF)","address":"ANGLE PASSAGE DU NORD \/ GABRIEL PERI - 92240 MALAKOFF","id":685},{"lat":"48.81755975358179","lon":"2.307485841267489","name":"22404 - BROSSOLETTE 2 (MALAKOFF)","address":"102 AVENUE PIERRE BROSSOLETTE - 92240 MALAKOFF","id":686},{"lat":"48.81524985420581","lon":"2.298000156576173","name":"22406 - MOQUET (MALAKOFF)","address":"81 RUE GUY MOQUET - 92240 MALAKOFF","id":687},{"lat":"48.891962328964816","lon":"2.284204990113615","name":"23010 - VOLTAIRE (LEVALLOIS)","address":"47 RUE VOLTAIRE - 92300 LEVALLOIS-PERRET","id":688},{"lat":"48.890380265413896","lon":"2.292160482166423","name":"23007 - WILSON (LEVALLOIS)","address":"22 RUE DU PRESIDENT WILSON - 92300 LEVALLOIS-PERRET","id":689},{"lat":"48.88668137249892","lon":"2.284023691218167","name":"23011 - BINEAU (LEVALLOIS)","address":"16 BOULEVARD BINEAU - 92300 LEVALLOIS-PERRET","id":690},{"lat":"48.884686338860064","lon":"2.24812549088851","name":"28002 - SOLJENITSYNE (PUTEAUX)","address":"BOULEVARD ALEXANDRE SOLJENITSYNE - 92800 PUTEAUX","id":691},{"lat":"48.85281419134583","lon":"2.419307088753658","name":"31002 - REPUBLIQUE (MONTREUIL)","address":"38 RUE DE LA REPUBLIQUE - 93100 MONTREUIL","id":692},{"lat":"48.85845965431733","lon":"2.427390310720301","name":"31013 - CENTENAIRE (MONTREUIL)","address":"8 RUE DU CENTENAIRE - 93100 MONTREUIL","id":693},{"lat":"48.86302549226599","lon":"2.415622204179507","name":"31706 - CHATEAU (BAGNOLET)","address":"RUE DU CHATEAU - 93170 BAGNOLET","id":694},{"lat":"48.857050394743816","lon":"2.422549956709779","name":"31709 - MARCEL (BAGNOLET)","address":"FACE AU 184 RUE ETIENNE MARCEL - 93170 BAGNOLET","id":695},{"lat":"48.907885757266726","lon":"2.378838474064149","name":"33009 - FELIX (AUBERVILLIERS)","address":"120 BOULEVARD FELIX FAURE - 93300 AUBERVILLIERS","id":696},{"lat":"48.911104809734795","lon":"2.379143742302604","name":"33010 - HUGO (AUBERVILLIERS)","address":"161 AVENUE VICTOR HUGO - 93300 AUBERVILLIERS","id":697},{"lat":"48.9145061128239","lon":"2.39105149687865","name":"33013 - RECHAUSSIERE (AUBERVILLIERS)","address":"52 RUE LEOPOLD RECHOSSIERE - 93300 AUBERVILLIERS","id":698},{"lat":"48.886526983267544","lon":"2.407468689386476","name":"33102 - JAURES 1 (PRE SAINT GERVAIS)","address":"RUE GABRIEL PERI ANGLE AVENUE JAURES - 93310 LE PRE SAINT GERVAIS","id":699},{"lat":"48.828595283857425","lon":"2.380220606266108","name":"13055 - LAGROUA","address":"18 RUE MARIE ANDREE LAGROUA - 75013 PARIS","id":700},{"lat":"48.82190796881169","lon":"2.363334710614756","name":"13038 - CHOISY POINT D'IVRY","address":"28 AVENUE DE CHOISY - 75013 PARIS","id":701},{"lat":"48.821138751437616","lon":"2.378718606608679","name":"13120 - VITRY DESAULT","address":"RUE PIERRE ET JOSEPH DESAULT - 75013 PARIS","id":702},{"lat":"48.82902666973469","lon":"2.361069024089417","name":"13034 - EDISON","address":"54 AVENUE EDISON - 75013 PARIS","id":703},{"lat":"48.82434285685922","lon":"2.376060091685724","name":"13118 - PATAY REGNAULT","address":"36-38 RUE REGNAULT - 75013 PARIS","id":704},{"lat":"48.82583946069817","lon":"2.357215357508107","name":"13030 - ITALIE TOLBIAC","address":"88 AVENUE D'ITALIE - 75013 PARIS","id":705},{"lat":"48.820507","lon":"2.351342","name":"13028 - GOUTHIERE","address":"12 RUE GOUTHIERE - 75013 PARIS","id":706},{"lat":"48.83950442458303","lon":"2.360989417022932","name":"13013 - SAINT MARCEL","address":"3 BD SAINT MARCEL - 75013 PARIS","id":707},{"lat":"48.82321968316936","lon":"2.365469628106195","name":"13039 - IVRY POINTE D'IVRY","address":"2 RUE DE LA POINTE D'IVRY - 75013 PARIS","id":708},{"lat":"48.83636225239755","lon":"2.372375389059736","name":"13019 - AURIOL QUAI DE LA GARE","address":"20 RUE FERNAND BRAUDEL - 75013 PARIS","id":709},{"lat":"48.829575726838485","lon":"2.369126815717134","name":"13044 - PLACE JEANNE D'ARC","address":"20 PLACE JEANNE D'ARC - 75013 PARIS","id":710},{"lat":"48.82049518804969","lon":"2.366819682140966","name":"13117 - STADE GEORGES CARPENTIER","address":"95-97 BOULEVARD MASSENA - 75013 PARIS","id":711},{"lat":"48.83252708397293","lon":"2.362354410392119","name":"13017 - NATIONALE","address":"167 RUE NATIONALE - 75013 PARIS","id":712},{"lat":"48.83540571295384","lon":"2.358218345030439","name":"13011 - COMPO FORMIO","address":"112 BD DE L'HOPITAL - 75013 PARIS","id":713},{"lat":"48.83568044417256","lon":"2.328290822051698","name":"14033 - DAGUERRE GASSENDI","address":"31 RUE FRODEVAUX - 75014 PARIS","id":714},{"lat":"48.823923168544646","lon":"2.316573329316086","name":"14115 - CIT\u00c9 UNIVERSITAIRE","address":"AVENUE MAURICE D'OCAGNE - 75014 PARIS","id":715},{"lat":"48.83088717455243","lon":"2.318882101207347","name":"14027 - ALESIA GERGOVIE","address":"FACE 83 RUE DE GERGOVIE - 75014 PARIS","id":716},{"lat":"48.82774626607583","lon":"2.320714098089133","name":"14110 - ABBE CARTON","address":"89 RUE DE L'ABBE CARTON - 75014 PARIS","id":717},{"lat":"48.8415048015128","lon":"2.323277715643321","name":"14101 - PLACE FERNAND MOURLOT","address":"33 BD EDGAR QUINET - 75014 PARIS","id":718},{"lat":"48.829570404732145","lon":"2.318353021413872","name":"14025 - JACQUIER","address":"10 RUE JACQUIER - 75014 PARIS","id":719},{"lat":"48.83163970406255","lon":"2.315158529047339","name":"14028 - PLAISANCE ALESIA","address":"164 RUE ALESIA - 75014 PARIS","id":720},{"lat":"48.83136668000465","lon":"2.340811882152406","name":"14007 - SAINT JACQUES FERRUS","address":"1 RUE FERRUS - 75014 PARIS","id":721},{"lat":"48.821111770492195","lon":"2.333785290429607","name":"14124 - PORTE D'ARCUEIL","address":"AVENUE DAVID WEIL - 75014 PARIS","id":722},{"lat":"48.839199167158384","lon":"2.32955509720774","name":"14002 - RASPAIL QUINET","address":"FACE 4 BD EDGAR QUINET - 75014 PARIS","id":723},{"lat":"48.851396721123486","lon":"2.291889313228121","name":"15028 - DUPLEIX","address":"54 BOULEVARD DE GRENELLE - 75015 PARIS","id":724},{"lat":"48.84214433157821","lon":"2.285862655943941","name":"15062 - BOUCICAUT","address":"87 RUE DE LA CONVENTION - 75015 PARIS","id":725},{"lat":"48.84307638694992","lon":"2.29514141310447","name":"15036 - LAMBERT","address":"102 RUE DE LA CROIX NIVERT - 75015 PARIS","id":726},{"lat":"48.84804578628324","lon":"2.284380633700994","name":"15030 - LINOIS","address":"66 RUE EMERIAU - 75015 PARIS","id":727},{"lat":"48.8335736182304","lon":"2.28548042091786","name":"15107 -  PALAIS DES SPORTS","address":"42 BOULEVARD VICTOR - 75015 PARIS","id":728},{"lat":"48.84472879162449","lon":"2.287141454149495","name":"15108 - MUS\u00c9E DES T\u00c9L\u00c9COMMUNICATIONS","address":"88 - 90 RUE DE LOURMEL - 75015 PARIS","id":729},{"lat":"48.844425919545365","lon":"2.29404143328216","name":"15034 - COMMERCE","address":"2 RUE LAKANAL - 75015 PARIS","id":730},{"lat":"48.83285390827691","lon":"2.306898478208195","name":"15041 - LABROUSTE","address":"13 RUE FRANQUET - 75015 PARIS","id":731},{"lat":"48.83598100445596","lon":"2.293467119128608","name":"15051 - ROLLET","address":"1 PLACE HENRI ROLLET - 75015 PARIS","id":732},{"lat":"48.84429286557653","lon":"2.277345897096496","name":"15060 - MONDRIAN","address":"9 PLACE DE LA MONTAGNE DU GOULET - 75015 PARIS","id":733},{"lat":"48.841709640161135","lon":"2.298549294011849","name":"15020 - MAIRIE DU 15EME","address":"4 RUE LEON SECHE - 75015 PARIS","id":734},{"lat":"48.830545669445776","lon":"2.292046396699678","name":"15048 - OLIVIER DE SERRE","address":"PLACE AMEDEE GIORDANI - 75015 PARIS","id":735},{"lat":"48.849921101862066","lon":"2.294660575884377","name":"15106 - GRENELLE VIOLET (PROP3)","address":"BOULEVARD DE GRENELLE - 75015 PARIS","id":736},{"lat":"48.837679003308445","lon":"2.275730609312381","name":"15104 - H\u00d4PITAL GEORGES POMPIDOU (PROP 2)","address":"FACE 66 - 70 RUE LEBLANC - 75015 PARIS","id":737},{"lat":"48.84245875550452","lon":"2.292173541441698","name":"15035 - PLACE ETIENNE PERNET","address":"2 RUE DES FRERES MORANE - 75015 PARIS","id":738},{"lat":"48.840094446742086","lon":"2.271589911985344","name":"15058 - GEORGES POMPIDOU","address":"4 PLACE DU MOULIN DE JAVEL - 75015 PARIS","id":739},{"lat":"48.83831247462415","lon":"2.308531843822157","name":"15016 - DUTOT","address":"59 RUE DUTOT - 75015 PARIS","id":740},{"lat":"48.84795020779427","lon":"2.260659826137633","name":"16034 - PORTE D'AUTEUIL","address":"76 RUE D'AUTEUIL - 75016 PARIS","id":741},{"lat":"48.852786944099584","lon":"2.275580584185594","name":"16025 - FONTAINE RAYNOUARD","address":"4 RUE JEAN DE LA FONTAINE - 75016 PARIS","id":742},{"lat":"48.861720329027264","lon":"2.275346568555312","name":"16017 - RUE DE SIAM","address":"1 BIS RUE DE SIAM - 75016 PARIS","id":743},{"lat":"48.85100487466529","lon":"2.272469482915694","name":"16028 - MILLET - JEAN DE LA FONTAINE","address":"12 RUE FRANCOIS MILLET - 75016 PARIS","id":744},{"lat":"48.86598324102434","lon":"2.275725635731198","name":"16107 - GODARD","address":"2 RUE BENJAMIN GODARD - 75016 PARIS","id":745},{"lat":"48.87518496111192","lon":"2.284219432060596","name":"16002 - PERGOLESE","address":"FACE 25 RUE PERGOLESE - 75016 PARIS","id":746},{"lat":"48.85780291711202","lon":"2.277500546942199","name":"16043 - PLACE DE PASSY","address":"2 PLACE DE PASSY - 75016 PARIS","id":747},{"lat":"48.87872089183019","lon":"2.270568097209188","name":"16121 - SABLONS MAILLOT","address":"ROUTE PORTE DES SABLONS \/ PORTE MAILLOT - 75016 PARIS","id":748},{"lat":"48.8640767117056","lon":"2.276881687006711","name":"16013 - AVENUE HENRI MARTIN","address":"71 AVENUE HENRI MARTIN - 75016 PARIS","id":749},{"lat":"48.86810888689743","lon":"2.281477522417188","name":"16011 - VICTOR HUGO RUE DE LA POMPE","address":"118 AVENUE VICTOR HUGO - 75016 PARIS","id":750},{"lat":"48.86877849178477","lon":"2.274354539176829","name":"16012 - BOULEVARD FLANDRIN","address":"68 BOULEVARD FLANDRIN - 75016 PARIS","id":751},{"lat":"48.869260223734464","lon":"2.289918722838758","name":"16006 - RUE LAURISTON","address":"60 RUE LAURISTON - 75016 PARIS","id":752},{"lat":"48.852618846108584","lon":"2.262930039103354","name":"16115 - RAFFET","address":"52 RUE RAFFET - 75016 PARIS","id":753},{"lat":"48.880079643111614","lon":"2.258576589883702","name":"16122 - MUETTE NEUILLY","address":"ROUTE DE LA MUETTE A NEUILLY - 75016 PARIS","id":754},{"lat":"48.88141110121936","lon":"2.29482820074442","name":"17029 - PLACE AIM\u00c9E MAILLART","address":"29 RUE PIERRE DEMOURS - 75017 PARIS","id":755},{"lat":"48.894151383293696","lon":"2.314678001115381","name":"17011 - PORTE DE CLICHY FRAGONARD","address":"4 RUE FRAGONARD - 75017 PARIS","id":756},{"lat":"48.88310390458221","lon":"2.323834749088381","name":"17050 - BATIGNOLLES","address":"1 RUE DES BATIGNOLLES - 75017 PARIS","id":757},{"lat":"48.87553842110213","lon":"2.293732100169925","name":"17033 - CARNOT","address":"8 AVENUE CARNOT - 75017 PARIS","id":758},{"lat":"48.88363915389933","lon":"2.295152067446227","name":"17030 - RENNEQUIN PEREIRE","address":"143 BOULEVARD DE PEREIRE - 75017 PARIS","id":759},{"lat":"48.877532084130166","lon":"2.294512536052928","name":"17046 - MAC MAHON","address":"18 AVENUE MARC MAHON - 75017 PARIS","id":760},{"lat":"48.8842894403224","lon":"2.305497444260642","name":"17021 - WAGRAM (17EME ARR.)","address":"RUE JOUFFROY D'ABBANS - 75017 PARIS","id":761},{"lat":"48.888185641932566","lon":"2.310120536549759","name":"17117 - PEREIRE SAUSSURE","address":"2 BIS BOULEVARD PEREIRE - 75017 PARIS","id":762},{"lat":"48.88260881643341","lon":"2.309026487339271","name":"17019 - MALESHERBES","address":"20 RUE DE PHALSBOURG - 75017 PARIS","id":763},{"lat":"48.884924358880866","lon":"2.310908552941167","name":"17119 - TOQUEVILLE","address":"64 RUE DE TOQUEVILLE - 75017 PARIS","id":764},{"lat":"48.88368821751221","lon":"2.313284405397194","name":"17015 - PLACE DE LEVIS","address":"19BIS\/21 RUE LEGENDRE - 75017 PARIS","id":765},{"lat":"48.88657099335245","lon":"2.288612344984025","name":"17032 - ESPACE CHAMPERRET","address":"12 RUE JEAN OESTREICHER - 75017 PARIS","id":766},{"lat":"48.895809485802886","lon":"2.327897409164145","name":"17003 - JACQUES KELLNER","address":"4-6 RUE JACQUES KELLNER - 75017 PARIS","id":767},{"lat":"48.88120833279596","lon":"2.316449640798716","name":"17024 - VILLIERS","address":"1\/3 PLACE PROSPER GOUBAUX - 75017 PARIS","id":768},{"lat":"48.896787395899615","lon":"2.310714419009491","name":"17014 - PORTE DE CLICHY - AVENUE DE CLICHY","address":"12 AVENUE DE LA PORTE DE CLICHY - 75017 PARIS","id":769},{"lat":"48.87949288672707","lon":"2.291498184912626","name":"17036 - AVENUE DE TERNES","address":"2-4 PLACE TRISTAN BERNARD - 75017 PARIS","id":770},{"lat":"48.877750033418835","lon":"2.284444356553717","name":"17042 - PORTE MAILLOT","address":"FACE 279 BOULEVARD PEREIRE - 75017 PARIS","id":771},{"lat":"48.888199236153696","lon":"2.310623417567974","name":"17049 - SAUSSURE","address":"116 BIS RUE DE SAUSSURE - 75017 PARIS","id":772},{"lat":"48.89405725132698","lon":"2.332199335980013","name":"18028 - VAUVENARGUES","address":"195 RUE CHAMPIONNET - 75018 PARIS","id":773},{"lat":"48.890747210171405","lon":"2.330820396477741","name":"18018 - CARPEAUX","address":"13 RUE CARPEAUX - 75018 PARIS","id":774},{"lat":"48.89373427753593","lon":"2.347517966604574","name":"18030 - SIMPLON","address":"1 RUE JOSEPH DIJON - 75018 PARIS","id":775},{"lat":"48.88416326647457","lon":"2.341879802310627","name":"18005 - TARDIEU","address":"8 RUE TARDIEU - 75018 PARIS","id":776},{"lat":"48.88457006316311","lon":"2.360215572664323","name":"18040 - CHAPELLE MARX DORMOY","address":"29 BOULEVARD DE LA CHAPELLE - 75018 PARIS","id":777},{"lat":"48.892895283967825","lon":"2.340119632436559","name":"18026 - RUISSEAU ORDENER","address":"37 RUE DU RUISSEAU - 75018 PARIS","id":778},{"lat":"48.8875730709534","lon":"2.33432733641793","name":"18113 - LEPIC","address":"70 - 72 RUE LEPIC - 75018 PARIS","id":779},{"lat":"48.895470370399146","lon":"2.349865450921441","name":"18101 - CHAMPIONNET","address":"32 RUE CHAMPIONNET - 75018 PARIS","id":780},{"lat":"48.88469160640549","lon":"2.344139285947184","name":"18006 - MARCHE ST-PIERRE","address":"PLACE SAINT PIERRE - 75018 PARIS","id":781},{"lat":"48.899268863316706","lon":"2.342963477309899","name":"18122 - BINET","address":"5 RUE BINET - 75018 PARIS","id":782},{"lat":"48.89521990468008","lon":"2.360097619095422","name":"18038 - ROND POINT DE LA CHAPELLE","address":"70 RUE DE LA CHAPELLE - 75018 PARIS","id":783},{"lat":"48.8957969797804","lon":"2.345585584134864","name":"18031 - ALBERT KAHN","address":"67 RUE CHAMPIONNET - 75018 PARIS","id":784},{"lat":"48.88861971645056","lon":"2.34701133583386","name":"18015 - CUSTINE","address":"23 RUE CUSTINE - 75018 PARIS","id":785},{"lat":"48.89913599014183","lon":"2.336893453557286","name":"18035 - PORTE MONTMARTRE","address":"FACE 66 RUE RENE BINET - 75018 PARIS","id":786},{"lat":"48.88702120343877","lon":"2.366886248240863","name":"18039 - EOLE","address":"41 RUE D'AUBERVILLIERS - 75018 PARIS","id":787},{"lat":"48.89801434321367","lon":"2.333653376162832","name":"18112 - H\u00d4PITAL BICHAT","address":"2 RUE ARTHUR RANC - 75018 PARIS","id":788},{"lat":"48.8984521733198","lon":"2.36960946333546","name":"18049 - PTE D'AUBERVILLIERS","address":"3-5 BOULEVARD NEY - 75018 PARIS","id":789},{"lat":"48.886389634924626","lon":"2.393637514433606","name":"19019 - PETIT HONNEGER","address":"124 RUE PETIT - 75019 PARIS","id":790},{"lat":"48.8887900267753","lon":"2.378500156138491","name":"19125 - LEDIT DE NANTES","address":"PLACE LEDIT DE NANTES - 75019 PARIS","id":791},{"lat":"48.8795614522371","lon":"2.38896041078391","name":"19025 - BOTZARIS","address":"FACE 80 RUE BOTZARIS - 75019 PARIS","id":792},{"lat":"48.88679881177337","lon":"2.374719516795626","name":"19029 - SEINE FLANDRE","address":"51 QUAI DE LA SEINE - 75019 PARIS","id":793},{"lat":"48.8890400680668","lon":"2.39528946179638","name":"19046 - PORTE DE PANTIN","address":"3 PLACE DE LA PORTE DE PANTIN - 75019 PARIS","id":794},{"lat":"48.8845807406891","lon":"2.38012665025372","name":"19013 - LAUMIERE","address":"8 & 1 RUE PETIT - 75019 PARIS","id":795},{"lat":"48.87660391892763","lon":"2.404769691129476","name":"19037 - PORTE DES LILAS","address":"304 RUE DE BELLEVILLE - 75019 PARIS","id":796},{"lat":"48.87751625686576","lon":"2.386099720372164","name":"19120 - ALOUETTES","address":"20 RUE CARDUCCI - 75019 PARIS","id":797},{"lat":"48.87541242186098","lon":"2.4059603311549","name":"20110 - PORTE DES LILAS","address":"FACE 241 AVENUE GAMBETTA - 75020 PARIS","id":798},{"lat":"48.86629510600211","lon":"2.389350412433471","name":"20032 - AMANDIERS","address":"55 RUE DES CENDRIERS - 75020 PARIS","id":799},{"lat":"48.83799829528177","lon":"2.240846664821182","name":"21009 - LECORBUSIER (BOULOGNE-BILLANCOURT)","address":"FACE AU 1 RUE LECORBUSIER - 92100 BOULOGNE-BILLANCOURT","id":800},{"lat":"48.840023256521405","lon":"2.239818996972534","name":"21004 - JAURES 2 (BOULOGNE-BILLANCOURT)","address":"55 BOULEVARD JEAN JAURES - 92100 BOULOGNE-BILLANCOURT","id":801},{"lat":"48.833473679272245","lon":"2.243900532079072","name":"21017 - REPUBLIQUE 1 (BOULOGNE-BILLANCOURT)","address":"91 BOULEVARD DE LA REPUBLIPQUE - 92100 BOULOGNE-BILLANCOURT","id":802},{"lat":"48.83550440751353","lon":"2.232531432424099","name":"21010 - SILLY (BOULOGNE-BILLANCOURT)","address":"93 RUE DE SILLY - 92100 BOULOGNE-BILLANCOURT","id":803},{"lat":"48.90066034942664","lon":"2.308569535028556","name":"21106 - MORICE 2 (CLICHY)","address":"2-4 RUE MORICE - 92110 CLICHY","id":804},{"lat":"48.903676702256305","lon":"2.319176657580128","name":"21104 - SANZILLON (CLICHY)","address":"64 RUE DE MADAME DE SANZILLON - 92110 CLICHY","id":805},{"lat":"48.902615193840354","lon":"2.313320636502019","name":"21105 - MORICE (CLICHY)","address":"35-37 RUE MORICE - 92110 CLICHY","id":806},{"lat":"48.90513700396853","lon":"2.302503160581296","name":"21109 - GUICHET (CLICHY)","address":"12BIS RUE DU GUICHET - 92110 CLICHY","id":807},{"lat":"48.89935963697993","lon":"2.304040560698093","name":"21107 - SINCHOLLE (CLICHY)","address":"RUE BERTRAND SINCHOLLE - 92110 CLICHY","id":808},{"lat":"48.815388220397274","lon":"2.320886790760933","name":"21204 - D'ORVES (MONTROUGE)","address":"FACE 44 RUE D'ESTIENNES D'ORVES \/ PISCINE - 92120 MONTROUGE","id":809},{"lat":"48.81386296358667","lon":"2.306943605660779","name":"21205 - JAURES 2 (MONTROUGE)","address":"AVENUE JEAN JAURES \/ RUE ROGER SALENGERO - 92120 MONTROUGE","id":810},{"lat":"48.8234505470138","lon":"2.249665298288027","name":"21303 - ILES (ISSY LES MOULINEAUX)","address":"ANGLE AVENUE JEAN MONNET ET BOULEVARD DES ILES -  92130 ISSY LES MOULINEAUX","id":811},{"lat":"48.82692976736927","lon":"2.272250431956518","name":"21310 - KLEBER (ISSY LES MOULINEAUX)","address":"4 RUE KLEBER - 92130 ISSY LES MOULINEAUX","id":812},{"lat":"48.82330323408161","lon":"2.296506343553357","name":"21706 - BLEUZEN (VANVES)","address":"74 RUE JEAN BLEUZEN - 92170 VANVES","id":813},{"lat":"48.816939911291605","lon":"2.280989480484553","name":"21701 - LARMEROUX (VANVES)","address":"FACE 5 BIS RUE LARMEROUX - 92170 VANVES","id":814},{"lat":"48.8842989293728","lon":"2.26099177209953","name":"22005 - DE GAULLE 3 (NEUILLY)","address":"195 AVENUE CHARLES DE GAULLE - 92200 NEUILLY","id":815},{"lat":"48.884707293437835","lon":"2.261530819987246","name":"22004 - CHARLES DE GAULLE (NEUILLY)","address":"162 AVENUE CHARLES DE GAULLE - 92200 NEUILLY","id":816},{"lat":"48.883026659159576","lon":"2.260096983931875","name":"22006 - PIERRET (NEUILLY)","address":"33 RUE PIERRET - 92200 NEUILLY SUR SEINE","id":817},{"lat":"48.8816744459654","lon":"2.27117749892451","name":"22010 - DE GAULLE 4 (NEUILLY)","address":"72 AVENUE CHARLES DE GAULLE - 92200 NEUILLY SUR SEINE","id":818},{"lat":"48.843126205966946","lon":"2.222189235680779","name":"22101 - GARE ROUTIERE ( SAINT CLOUD)","address":"GARE ROUTIERE - ARRET TRAM - 92210 SAINT CLOUD","id":819},{"lat":"48.822528306004045","lon":"2.298631654119718","name":"22401 - DE GAULLE (MALAKOFF)","address":"BOULEVARD CHARLES DE GAULLE (STATION DE METRO) - 92240 MALAKOFF","id":820},{"lat":"48.89819702263572","lon":"2.293848017974069","name":"23004 - COUTURIER 2 (LEVALLOIS)","address":"109 RUE  PAUL VAILLANT COUTURIER - 92300 LEVALLOIS","id":821},{"lat":"48.89086032289106","lon":"2.295000370135378","name":"23006 - GUESDE (LEVALLOIS)","address":"8 RUE JULES GUESDE - 92300 LEVALLOIS-PERRET","id":822},{"lat":"48.88047087219649","lon":"2.237362446304566","name":"28003 - JAURES (PUTEAUX)","address":"152 RUE JEAN JAURES - 92800 PUTEAUX","id":823},{"lat":"48.857477789996096","lon":"2.432569781846518","name":"31007 - PARIS 1 (MONTREUIL)","address":"56 RUE DE PARIS - 93100 MONTREUIL","id":824},{"lat":"48.85628451618644","lon":"2.426434490609822","name":"31005 - PARIS 2  (MONTREUIL)","address":"127\/129 RUE DE PARIS - 93100 MONTREUIL","id":825},{"lat":"48.85681112307105","lon":"2.444987425339264","name":"31010 - STALINGRAD (MONTREUIL)","address":"67-69 RUE DE STALINGRAD - 93100 MONTREUIL","id":826},{"lat":"48.870658012858954","lon":"2.424046437536216","name":"31702 - CURIE (BAGNOLET)","address":"40 PIERRE ET MARIE CURIE - 93170 BAGNOLET","id":827},{"lat":"48.905745467654526","lon":"2.364997877155126","name":"32008 - EMGP NORD (SAINT DENIS)","address":"EMGP PARKING ENTREE NORD - 93200 SAINT DENIS","id":828},{"lat":"48.88217309420464","lon":"2.42327263606036","name":"32605 - HORTENSIAS (LES LILAS)","address":"1 ALLEE DES HORTENSIAS - 93260 LES LILAS","id":829},{"lat":"48.910143671003794","lon":"2.385052018244114","name":"33006 - KARMAN (AUBERVILLIERS)","address":"FACE 143 RUE ANDRE KARMAN - 93300 AUBERVILLIERS","id":830},{"lat":"48.915156182813234","lon":"2.376424009514086","name":"33012 - LANDY (AUBERVILLIERS)","address":"FACE 2 RUE DU LANDY - 93300 AUBERVILLIERS","id":831},{"lat":"48.906383398095834","lon":"2.3895475019254","name":"33005 - REPUBLIQUE 2 (AUBERVILLIERS)","address":"FACE AU 106 AVENUE DE LA REPUBLIQUE - 93300 AUBERVILLIERS","id":832},{"lat":"48.884001264434495","lon":"2.40798991938787","name":"33103 - JAURES 2 (PRE SAINT GERVAIS)","address":"34 AVENUE JEAN JAURES - 93310 LE PRE SAINT GERVAIS","id":833},{"lat":"48.905269629379745","lon":"2.322171248688672","name":"34009 - MAAR (SAINT OUEN)","address":"RUE DORA MAAR \/ GARE RER - 93400 SAINT OUEN","id":834},{"lat":"48.905362251416825","lon":"2.33738964850196","name":"34007 - ROSIERS (SAINT OUEN)","address":"43-45 RUE BLANQUI \/ RUE DES ROSIERS - 93400 SAINT OUEN","id":835},{"lat":"48.90630480606801","lon":"2.343969017042765","name":"34006 - MICHELET (SAINT OUEN)","address":"92 AVENUE MICHELET - 93400 SAINT OUEN","id":836},{"lat":"48.893268664697416","lon":"2.412715733388685","name":"35014 - DE GAULLE (PANTIN)","address":"139 AVENUE JEAN LOLIVE \/ MAIL CHARLES DE GAULLE - 93500 PANTIN","id":837},{"lat":"48.89633193166097","lon":"2.409087652725976","name":"35006 - DELIZY (PANTIN)","address":"FACE AU 23 RUE DELIZY - 93500 PANTIN","id":838},{"lat":"48.907226012664125","lon":"2.396129200445667","name":"35002 - JAURES 2 (PANTIN)","address":"130 RUE JEAN JAURES - 93500 PANTIN","id":839},{"lat":"48.889488420014786","lon":"2.419848968734546","name":"35013 - TELL (PANTIN)","address":"1 RUE GUILLAUME TELL \/ FACE AU 64 BENJAMIN DELESSERT- 93500 PANTIN","id":840},{"lat":"48.808800394993376","lon":"2.334689654662475","name":"41102 - RENAN (ARCUEIL)","address":"rue Ernest Renan \/ angle rue Vaucouleurs (A la sortie du RER B) - 94110 ARCUEIL","id":841},{"lat":"48.84354695991566","lon":"2.418317476567148","name":"41602 - DIGEON (SAINT MANDE)","address":"PLACE CHARLES DIGEON - 94160 SAINT MANDE","id":842},{"lat":"48.8190127185084","lon":"2.3967191724427","name":"42004 - COUTURIER (IVRY)","address":"30 RUE PAUL VAILLANT COUTURIER -  94200 IVRY SUR SEINE","id":843},{"lat":"48.8147064321348","lon":"2.40238243434276","name":"42005 - GAMBETTA (IVRY)","address":"1 PLACE DE LEON GAMBETTA - 94200 IVRY","id":844},{"lat":"48.81020034796607","lon":"2.379670589115164","name":"42012 - BARBUSSE (IVRY)","address":"1 RUE HENRY BARBUSSE - 94200 IVRY","id":845},{"lat":"48.82040389400885","lon":"2.408405472156745","name":"42203 - ELUARD (CHARENTON)","address":"FACE AU 7 RUE PAUL ELUARD - 94220 CHARENTON","id":846},{"lat":"48.822736012097714","lon":"2.405659203207511","name":"42202 - RONSARD (CHARENTON)","address":"1 RUE  KENNEDY \/ ALLEE RONSARD - 94220 CHARENTON","id":847},{"lat":"48.814662495608864","lon":"2.36134550272134","name":"42706 - SALENGRO (KREMLIN BICETRE)","address":"3 RUE ROGER SALENGRO -  94270 LE KREMLIN BICETRE","id":848},{"lat":"48.815050006197445","lon":"2.459239414806482","name":"44101 - PLACE MONGOLFIER (SAINT MAURICE)","address":"PLACE MONTGOLFIER - 94410 SAINT MAURICE","id":849},{"lat":"48.86397965515107","lon":"2.335599603893845","name":"01015 - PLACE ANDRE MALRAUX","address":"2 PLACE ANDRE MALRAUX - 75001 PARIS","id":850},{"lat":"48.86299816676784","lon":"2.341555077827231","name":"01012 - BOURSE DU COMMERCE","address":"FACE 29 RUE JEAN JACQUES ROUSSEAU - 75001 PARIS","id":851},{"lat":"48.864065046949904","lon":"2.347597912716465","name":"01102 - FRANCAISE","address":"6 RUE FRANCAISE - 75001 PARIS","id":852},{"lat":"48.859150287255645","lon":"2.347620087684511","name":"01003 - RIVOLI SAINT DENIS","address":"7 RUE SAINT DENIS - 75001 PARIS","id":853},{"lat":"48.860245194532624","lon":"2.344333545273837","name":"01009 - PONT NEUF - 14","address":"14 RUE DU PONT NEUF - 75001 PARIS","id":854},{"lat":"48.857091635218225","lon":"2.341747995157864","name":"01001 - ILE DE LA CITE PONT NEUF","address":"41 QUAI DE L'HORLOGE - 75001 PARIS","id":855},{"lat":"48.86243023476397","lon":"2.338520131151779","name":"01013 - SAINT HONORE","address":"186 RUE SAINT HONORE - 75001 PARIS","id":856},{"lat":"48.86377283202625","lon":"2.342707561978307","name":"01024 - LOUVRE COQ HERON","address":"20 RUE COQUILLIERE - 75001 PARIS","id":857},{"lat":"48.86367225536575","lon":"2.33405760804708","name":"01014 - RIVOLI MUSEE DU LOUVRE","address":"5 RUE DE L'ECHELLE - 75001 PARIS","id":858},{"lat":"48.867623078056845","lon":"2.333268593101536","name":"02020 - OPERA CASANOVA","address":"02 RUE DANIEL CASANOVA - 75002 PARIS","id":859},{"lat":"48.86614574652862","lon":"2.350844595287827","name":"02003 - ALLEE PIERRE LAZAEFF","address":"189 RUE SAINT DENIS - 75002 PARIS","id":860},{"lat":"48.870508937203915","lon":"2.334054461939329","name":"02015 - OPERA - CAPUCINES","address":"25 RUE LOUIS LE GRAND - 75002 PARIS","id":861},{"lat":"48.866973714239656","lon":"2.3486324654447","name":"02004 - REAUMUR MONTORGUEIL","address":"83 ALLEE PIERRE LAZAREF - 75002 PARIS","id":862},{"lat":"48.871242274166406","lon":"2.341394999257386","name":"02108 - VIVIENNE","address":"42 RUE VIVIENNE - 75002 PARIS","id":863},{"lat":"48.86558419108518","lon":"2.356278447633629","name":"03011 - TURBIGO","address":"55 RUE TURBIGO - 75003 PARIS","id":864},{"lat":"48.85804405694242","lon":"2.367832659296124","name":"03001 - CHEMIN VERT BEAUMARCHAIS","address":"69 BOULEVARD BEAUMARCHAIS - 75003 PARIS","id":865},{"lat":"48.856954148055344","lon":"2.362897420229539","name":"03013 - RUE DE SEVIGNE","address":"36 RUE DE SEVIGNE - 75003 PARIS","id":866},{"lat":"48.86707","lon":"2.36351","name":"03004 - REPUBLIQUE 23","address":"19 PLACE DE LA REPUBLIQUE - 75003 PARIS","id":867},{"lat":"48.86453080530752","lon":"2.361579815214986","name":"03006 - MAIRIE DU 3EME","address":"10 RUE PERREE - 75003 PARIS","id":868},{"lat":"48.86008832610481","lon":"2.350148335920203","name":"04020 - BEAUBOURG PLACE MICHELET","address":"FACE 27 RUE QUINCAMPOIX - 75004 PARIS","id":869},{"lat":"48.857999643314926","lon":"2.350217280976349","name":"04018 - RIVOLI SEBASTOPOL","address":"1 RUE SAINT BON - 75004 PARIS","id":870},{"lat":"48.85381414531594","lon":"2.357092654363953","name":"04011 - PLACE DU BATAILLON FRANCAIS DE L'ONU","address":"FACE 18 RUE DE L'HOTEL DE VILLE - 75004 PARIS","id":871},{"lat":"48.855023999040945","lon":"2.361203538755455","name":"04010 - SAINT PAUL PAV\u00c9E","address":"105-109 TERRE PLEIN SAINT PAUL - 75004 PARIS","id":872},{"lat":"48.84838576471672","lon":"2.350169939020645","name":"05018 - MUTUALITE","address":"20 RUE MONGE - 75005 PARIS","id":873},{"lat":"48.8401089566606","lon":"2.337296889737942","name":"05029 - PORT ROYAL","address":"FACE 41 AVENUE GEORGES BERNANOS - 75005 PARIS","id":874},{"lat":"48.850977229793614","lon":"2.346076825913541","name":"05008 - ST GERMAIN-DANTE","address":"9 RUE DE DANTE - 75005 PARIS","id":875},{"lat":"48.847184641150214","lon":"2.353398379689353","name":"05021 - JUSSIEU","address":"41 RUE JUSSIEU - 75005 PARIS","id":876},{"lat":"48.84660186578123","lon":"2.34901473289268","name":"05017 - DESCARTES","address":"17 RUE DESCARTES - 75005 PARIS","id":877},{"lat":"48.846986752813294","lon":"2.346499653762975","name":"05032 - PANTHEON CARMES","address":"2 RUE VALETTE - 75005 PARIS","id":878},{"lat":"48.849770370603345","lon":"2.343573575733007","name":"05030 - SORBONNE","address":"5 RUE DE LA SORBONNE - 75005 PARIS","id":879},{"lat":"48.84651692058683","lon":"2.343123803367338","name":"05006 - SAINT JACQUES SOUFFLOT","address":"174 RUE SAINT JACQUES - 75005 PARIS","id":880},{"lat":"48.849159689167834","lon":"2.356140327475379","name":"05020 - PONT DE SULLY RIVE GAUCHE","address":"03 RUE DES FOSSES SAINT BERNARD - 75005 PARIS","id":881},{"lat":"48.843860353248765","lon":"2.35190222528039","name":"05110 - LACEPEDE","address":"27 RUE LACEPEDE - 75005 PARIS","id":882},{"lat":"48.850297010217595","lon":"2.330446820277252","name":"06103 - MEZIERES RENNES","address":"16 RUE DE MEZIERES - 75006 PARIS","id":883},{"lat":"48.85293041059132","lon":"2.342657392891206","name":"06020 - SAINT MICHEL DANTON","address":"2 RUE DANTON - 75006 PARIS","id":884},{"lat":"48.84254096604404","lon":"2.335067885565505","name":"06018 - MICHELET ASSAS","address":"13 RUE MICHELET - 75006 PARIS","id":885},{"lat":"48.8525574216674","lon":"2.331647722906649","name":"06032 - RENNES SABOT","address":"7 RUE DU SABOT - 75006 PARIS","id":886},{"lat":"48.84672098257342","lon":"2.332394592929583","name":"06009 - GUYNEMER LUXEMBOURG","address":"26 RUE GUYNEMER - 75006 PARIS","id":887},{"lat":"48.849580002186286","lon":"2.337848437179539","name":"06017 - SENAT CONDE","address":"34 RUE CONDE - 75006 PARIS","id":888},{"lat":"48.85330527759475","lon":"2.334465461882703","name":"06012 - SAINT GERMAIN COPEAU","address":"141 BD SAINT GERMAIN - 75006 PARIS","id":889},{"lat":"48.85165969291236","lon":"2.335504665009827","name":"06022 - MARCHE SAINT GERMAIN - MABILLON","address":"17 RUE LOBINEAU - 75006 PARIS","id":890},{"lat":"48.854268334051035","lon":"2.319454010061415","name":"07012 - CITE VANEAU","address":"7 CITE VANEAU - 75007 PARIS","id":891},{"lat":"48.86138","lon":"2.32442","name":"00901 - PORT SOLF\u00c9RINO (STATION MOBILE)","address":"QUAI ANATOLE FRANCE - PONT SOLFERINO - 75007 PARIS","id":892},{"lat":"48.84776985682885","lon":"2.316183886729462","name":"07001 - DUROC","address":"63 BOULEVARD DES INVALIDES - 75007 PARIS","id":893},{"lat":"48.85129433458901","lon":"2.309747615603337","name":"07018 - SEGUR ESTREES","address":"23 AVENUE DE SEGUR - 75007 PARIS","id":894},{"lat":"48.857290118463105","lon":"2.31530968318177","name":"07015 - VARENNE","address":"9 BOULEVARD DES INVALIDES - 75007 PARIS","id":895},{"lat":"48.85727649829621","lon":"2.310257927534994","name":"07017 - LA TOUR MAUBOURG","address":"1 AVENUE DE LA MOTTE PICQUET - 75007 PARIS","id":896},{"lat":"48.861273016278126","lon":"2.309453550914185","name":"07016 - TOUR MAUBOURG UNIVERSITE","address":"13 RUE SURCOUF - 75007 PARIS","id":897},{"lat":"48.859068394963046","lon":"2.318624221125004","name":"07011 - ST DOMINIQUE","address":"30 BIS RUE LAS CASES - 75007 PARIS","id":898},{"lat":"48.85664110011817","lon":"2.306598534111823","name":"07020 - CLER","address":"FACE 3 RUE DU CHAMP DE MARS - 75007 PARIS","id":899},{"lat":"48.87673249893723","lon":"2.33048422584945","name":"09102 - PLACE D'ESTIENNE D'ORVES","address":"2 RUE DE LONDRES - 75009 PARIS","id":900},{"lat":"48.88210763435887","lon":"2.346261998538882","name":"09006 - TRUDAINRE ROCHECHOUART","address":"81 RUE DUNKERQUE - 75009 PARIS","id":901},{"lat":"48.872971251927126","lon":"2.329465611700831","name":"09032 - MATHURINS","address":"12 RUE DES MATHURINS - 75009 PARIS","id":902},{"lat":"48.8716626619994","lon":"2.363933311380362","name":"10014 - BEAUREPAIRE","address":"14 RUE DE MARSEILLE - 75010 PARIS","id":903},{"lat":"48.874794994841274","lon":"2.366669436984963","name":"10114 - HOPITAL SAINT LOUIS","address":"12 BIS RUE DE LA GRANGE AUX BELLES - 75010 PARIS","id":904},{"lat":"48.88199720999019","lon":"2.363625214552995","name":"10031 - AQUEDUC","address":"48 RUE LOUIS BLANC - 75010 PARIS","id":905},{"lat":"48.88126816395289","lon":"2.368117527990073","name":"10037 - VERSION 2 JAURES","address":"EGLISE SAINT JOSEPH ARTISAN - 75010 PARIS","id":906},{"lat":"48.87935510317391","lon":"2.358379192454538","name":"10027 - DUNKERQUE","address":"4 RUE DE DUNKERQUE - 75010 PARIS","id":907},{"lat":"48.875034655883944","lon":"2.359801238597928","name":"10016 - VILLEMIN","address":"29 RUE DES RECOLLETS - 75010 PARIS","id":908},{"lat":"48.87963935299516","lon":"2.356904958415215","name":"10151 - GARE DU NORD 1","address":"8-10 RUE DE DUNKERQUE - 75010 PARIS","id":909},{"lat":"48.87242997325711","lon":"2.355489390173873","name":"10007 - CHATEAU D'EAU","address":"57 RUE DU CHATEAU D'EAU - 75010 PARIS","id":910},{"lat":"48.854176040414856","lon":"2.396093495321842","name":"11017 - ALEXANDRE DUMAS","address":"FACE 77 BOULEVARD DE CHARONNE - 75011 PARIS","id":911},{"lat":"48.8621350384716","lon":"2.377229858571335","name":"11027 - SAINT AMBROISE PARMENTIER","address":"17 RUE SAINT AMBROISE - 75011 PARIS","id":912},{"lat":"48.849276638185486","lon":"2.394934477750117","name":"11013 - NATION VOLAIRE","address":"5 PLACE DE LA NATION - 75011 PARIS","id":913},{"lat":"48.86580427668637","lon":"2.369337074966926","name":"11039 - JULES FERRY REPUBLIQUE","address":"FACE 121 BOULEVARD RICHARD LENOIR - 75011 PARIS","id":914},{"lat":"48.86681","lon":"2.36547","name":"11046 - VOLTAIRE","address":"8 place de la r\u00e9publique - 75011 PARIS","id":915},{"lat":"48.86455576531679","lon":"2.373071507389205","name":"11031 - PARMENTIER","address":"1 RUE JACQUARD - 75011 PARIS","id":916},{"lat":"48.855512861322296","lon":"2.375240347026149","name":"11003 - ROQUETTE DALLERY","address":"29 RUE KELLER - 75011 PARIS","id":917},{"lat":"48.85288867036487","lon":"2.389147640809553","name":"11102 - RUE DES BOULETS ( COMPLEMENTAIRE )","address":"3 RUE ALEXANDRE DUMAS - 75011 PARIS","id":918},{"lat":"48.856870467758306","lon":"2.370554639861521","name":"11033 - BREGUET SABIN","address":"FACE 23 BD RICHARD LENOIR - 75011 PARIS","id":919},{"lat":"48.86382517434147","lon":"2.38090637715497","name":"11028 - BLUETS REPUBLIQUE","address":"FACE 20 RUE GUILLAUME BERTRAND - 75011 PARIS","id":920},{"lat":"48.83976","lon":"2.38241","name":"12024 - GARE DE BERCY","address":"GARE DE BERCY - ANGLE RUE CORBINEAU - 75012 PARIS","id":921},{"lat":"48.835545043575955","lon":"2.40745551592605","name":"12032 - PORTE DOREE","address":"1 PLACE EDOUARD RENARD - 75012 PARIS","id":922},{"lat":"48.84394917584249","lon":"2.37908134343237","name":"12106 - BARTHES TROYES","address":"3 RUE ROLAND BARTHES - 75012 PARIS","id":923},{"lat":"48.847296310645035","lon":"2.385707672217665","name":"12012 - REUILLY DIDEROT","address":"71 BOULEVARD DIDEROT - 75012 PARIS","id":924},{"lat":"48.832934193699835","lon":"2.402636749399156","name":"12113 - CARDINAL LAVIGERIE","address":"4 PLACE DU CARDINAL LAVIGERIE - 75012 PARIS","id":925},{"lat":"48.84264777870052","lon":"2.386164927813738","name":"12027 - MONTGALLET CHARENTON","address":"2 RUE MONTGALLET - 75012 PARIS","id":926},{"lat":"48.83667579640627","lon":"2.391795855555629","name":"12030 - WATTIGNIES","address":"245 RUE DE CHARENTON - 75012 PARIS","id":927},{"lat":"48.824407767562604","lon":"2.418455004234756","name":"12126 - AVENUE DE GRAVELLE","address":"FACE 71 AVENUE DE GRAVELLE - 75012 PARIS","id":928},{"lat":"48.84089981382828","lon":"2.404380102963422","name":"12022 - BIZOT","address":"FACE 29 RUE DU SAHEL - 75012 PARIS","id":929},{"lat":"48.83877530648142","lon":"2.38086079265402","name":"12108 - PALAIS OMNISPORT","address":"81 RUE DE BERCY - 75012 PARIS","id":930},{"lat":"48.846268789803915","lon":"2.379264325090339","name":"12009 - DIDEROT","address":"FACE 124 RUE DE CHARENTON - 75012 PARIS","id":931},{"lat":"48.83158812517445","lon":"2.398745664948547","name":"12040 - PORTE DE CHARENTON","address":"FACE 2 AV. DE LA PORTE DE CHARENTON - 75012 PARIS","id":932},{"lat":"48.82783803264948","lon":"2.370530563855483","name":"13045 - TOLBIAC ALBERT","address":"FACE 1 RUE JEAN COLLY - 75013 PARIS","id":933},{"lat":"48.82998371071962","lon":"2.350403587821832","name":"13009 - BLANQUI CORVISART","address":"46 BOULEVARD AUGUSTE BLANQUI - 75013 PARIS","id":934},{"lat":"48.831582643774894","lon":"2.356708420760657","name":"13010 - PLACE D ITALIE AURIOL","address":"FACE 11 PLACE D'ITALIE - 75013 PARIS","id":935},{"lat":"48.825712903519616","lon":"2.375044300094851","name":"13046 - OUDINE PATAY","address":"10 RUE EUGENE OUDINE - 75013 PARIS","id":936},{"lat":"48.821159320800966","lon":"2.358701217878322","name":"13031 - ITALIE MAISON BLANCHE","address":"121 AVENUE D'ITALIE - 75013 PARIS","id":937},{"lat":"48.83199636916928","lon":"2.354809472700658","name":"13008 - ITALIE ROSALIE","address":"FACE 2 PLACE D'ITALIE - 75013 PARIS","id":938},{"lat":"48.82649432826404","lon":"2.344301715865302","name":"13048 - TOLBIAC WURTZ","address":"20 RUE WURTZ - 75013 PARIS","id":939},{"lat":"48.83264101037033","lon":"2.37910490091443","name":"13051 - QUAI FRANCOIS MAURIAC TOLBIAC","address":"9 QUAI FRANCOIS MAURIAC - 75013 PARIS","id":940},{"lat":"48.83486717959749","lon":"2.344575141243577","name":"13002 - ARAGO","address":"55 BD ARAGO - 75013 PARIS","id":941},{"lat":"48.83062407509372","lon":"2.345429456645987","name":"13004 - GLACIERE","address":"88 BOULEVARD AUGUSTE BLANQUI (SUR TPC) - 75013 PARIS","id":942},{"lat":"48.819894618061376","lon":"2.359432938466414","name":"13032 - MASSENA","address":"163 AVENUE D'ITALIE - 75013 PARIS","id":943},{"lat":"48.83908421830948","lon":"2.370532330985574","name":"13020 - MENDES FRANCE","address":"FACE 15 RUE PAUL KLEE - 75013 PARIS","id":944},{"lat":"48.84183617360056","lon":"2.363468636860069","name":"13514 - GARE D'AUSTERLITZ 2","address":"9 BOULEVARD DE L'HOPITAL - 75013 PARIS","id":945},{"lat":"48.837549292197465","lon":"2.335983030466524","name":"14111 - DENFERT-ROCHEREAU CASSINI","address":"18 RUE CASSINI - 75014 PARIS","id":946},{"lat":"48.830723214583635","lon":"2.336146557204349","name":"14125 - DAREAU","address":"34 RUE DAREAU - 75014 PARIS","id":947},{"lat":"48.82234096593411","lon":"2.327861653302471","name":"14108 - JOURDAN LE BRIX ET MESNIN","address":"RUE LE BRIX ET MESNIN - 75014 PARIS","id":948},{"lat":"48.834250135053914","lon":"2.317614786781552","name":"14104 - LOSSERAND BOYER-BARRET","address":"4 RUE BOYER BARRET - 75014 PARIS","id":949},{"lat":"48.820323646126774","lon":"2.32300304092451","name":"14116 - ROMAIN ROLLAND","address":"49-51 BD ROMAIN ROLLAND - 75014 PARIS","id":950},{"lat":"48.82650293311012","lon":"2.309274799827166","name":"14122 - BRUNE","address":"1 RUE DU COLONEL MONTEIL - 75014 PARIS","id":951},{"lat":"48.823653480254634","lon":"2.307766825585275","name":"14023 - MALAKOFF PINARD","address":"76-78 BOULEVARD ADOLPHE PINARD - 75014 PARIS","id":952},{"lat":"48.82742690008254","lon":"2.325760332846014","name":"14010 - JEAN MOULIN ALESIA","address":"12 AVENUE JEAN MOULIN - 75014 PARIS","id":953},{"lat":"48.83586772099485","lon":"2.33798034198275","name":"14112 - FAUBOURG SAINT JACQUES CASSINI","address":"24 RUE MECHAIN - 75014 PARIS","id":954},{"lat":"48.83425462795304","lon":"2.317609339386963","name":"14030 - LOSSERAND - PERNETY","address":"61 RUE PERNETY - 75014 PARIS","id":955},{"lat":"48.83617286014242","lon":"2.319392143923804","name":"14034 - RUE DE L OUEST CHATEAU","address":"48 RUE DE L'OUEST - 75014 PARIS","id":956},{"lat":"48.827989487365954","lon":"2.30567210645885","name":"14024 - RAYMOND LAUSSERAND","address":"RUE VERCINGETORIX - 75014 PARIS","id":957},{"lat":"48.831506675674554","lon":"2.329319363216664","name":"14008 - MOUTON DUVERNET","address":"5 RUE MOUTON DUVERNET - 75014 PARIS","id":958},{"lat":"48.821216789689345","lon":"2.321173502143062","name":"14020 - PORTE DE MONTROUGE","address":"AV. DE LA PORTE DE MONTROUGE - 75014 PARIS","id":959},{"lat":"48.83317977055646","lon":"2.299282641599619","name":"15047 - DANTZIG","address":"FACE AU 37 RUE MORILLONS - 75015 PARIS","id":960},{"lat":"48.836058393856256","lon":"2.301865968384287","name":"15039 - CHARLES VALLIN","address":"133 RUE DE L'ABBE GROULT - 75015 PARIS","id":961},{"lat":"48.851454182127426","lon":"2.296710300930856","name":"15025 - AMETTE","address":"26 RUE DUPLEIX - 75015 PARIS","id":962},{"lat":"48.844838019227154","lon":"2.311085506094106","name":"15008 - SEVRES LECOURBE","address":"FACE 4 BOULEVARD PASTEUR - 75015 PARIS","id":963},{"lat":"48.852804604940296","lon":"2.293077029857222","name":"15067 - DESAIX","address":"23 RUE DESAIX - 75015 PARIS","id":964},{"lat":"48.838936909959585","lon":"2.316168412063174","name":"15114 - PASTEUR COTENTIN","address":"FACE 1 RUE DU COTENTIN - 75015 PARIS","id":965},{"lat":"48.83321982302087","lon":"2.276630334051614","name":"15125 - AQUABOULEVARD","address":"2 AVENUE DE LA PORTE DE SEVRES \/ AQUABOULEVARD - 75015 PARIS","id":966},{"lat":"48.84374888916389","lon":"2.322451937473582","name":"15001 - ARRIVEE","address":"8 RUE DE L'ARRIVEE - 75015 PARIS","id":967},{"lat":"48.844575963933345","lon":"2.317756579232021","name":"15006 - CHERCHE MIDI","address":"FACE AU 138 RUE DU CHERCHE MIDI - 75015 PARIS","id":968},{"lat":"48.843277330035214","lon":"2.30230766886348","name":"15012 - MADEMOISELLE","address":"76 RUE CAMBRONNE - 75015 PARIS","id":969},{"lat":"48.832207345184806","lon":"2.302328737691185","name":"15046 - GEORGES BRASSENS","address":"42 RUE DES MORILLONS - 75015 PARIS","id":970},{"lat":"48.84265080464087","lon":"2.312727390214462","name":"15005 - PLACE TREFOUEL","address":"FACE 24 BOULEVARD PASTEUR - 75015 PARIS","id":971},{"lat":"48.838171310248995","lon":"2.270338379746369","name":"15068 - BOULEVARD VICTOR","address":"FACE 5 BOULEVARD MARTIAL VALIN - 75015 PARIS","id":972},{"lat":"48.848656315905245","lon":"2.299244076945987","name":"15023 - LA MOTTE PIQUET","address":"146 BOULEVARD GRENELLE - 75015 PARIS","id":973},{"lat":"48.831100187272625","lon":"2.285387594831689","name":"15126 - RENAN","address":"RUE ERNEST RENAN \/ PARC DES EXPOSITIONS - 75015 PARIS","id":974},{"lat":"48.850614750906075","lon":"2.2872501634709","name":"15029 - EMERIAU","address":"27 RUE EMERIAU - 75015 PARIS","id":975},{"lat":"48.854851748835294","lon":"2.29500791364336","name":"15071 - CHAMP DE MARS COTE 16EME","address":"36 RUE DE SUFFREN - 75015 PARIS","id":976},{"lat":"48.83767682233156","lon":"2.295586926020252","name":"15052 - CONVENTION","address":"183 RUE DE LA CONVENTION - 75015 PARIS","id":977},{"lat":"48.83633386181695","lon":"2.310466238030852","name":"15017 - PROCESSION","address":"7 PLACE FALGUIERE - 75015 PARIS","id":978},{"lat":"48.84766571002937","lon":"2.273556264965371","name":"16030 - MIRABEAU","address":"4 PLACE DE BARCELONE - 75016 PARIS","id":979},{"lat":"48.871361039775586","lon":"2.288866396041159","name":"16104 - PAUL VAL\u00c9RY","address":"26-32 RUE PAUL VALERY - 75016 PARIS","id":980},{"lat":"48.87279915599243","lon":"2.291508179426733","name":"16103 - TRAKTIR","address":"3 RUE TRAKTIR - 75016 PARIS","id":981},{"lat":"48.863757931035046","lon":"2.267504683574771","name":"16130 - BOIS DE BOULOGNE \/ PORTE DE LA MUETTE 2","address":"AVENUE LOUIS BARTHOU \/ PLACE DE LA COLOMBIE - 75016 PARIS","id":982},{"lat":"48.85293316046699","lon":"2.280439719992999","name":"16024 - KENNEDY RANELAGH","address":"4 RUE RANELAGH DEVANT RER - 75016 PARIS","id":983},{"lat":"48.85940308194","lon":"2.2765220890277","name":"16111 - HELIE","address":"4 - 6 rue Faustin Helie - 75016 PARIS","id":984},{"lat":"48.864910448589","lon":"2.292519101004145","name":"16007 - LONGCHAMP","address":"4 RUE DE LONGCHAMP - 75016 PARIS","id":985},{"lat":"48.855484883720074","lon":"2.270408657395703","name":"16026 - RANELAGH","address":"91 RUE DU RANELAGH - 75016 PARIS","id":986},{"lat":"48.86741186571367","lon":"2.290781380114821","name":"16008 - GALILEE KLEBER","address":"1 RUE GALILEE - 75016 PARIS","id":987},{"lat":"48.84096295264689","lon":"2.264394118075111","name":"16039 - VERSAILLES EXELMANS","address":"27 BOULEVARD EXELMANS - 75016 PARIS","id":988},{"lat":"48.870753284048824","lon":"2.274875298344967","name":"16004 - BOULEVARD LANNES","address":"FACE 2 BOULEVARD LANNES - 75016 PARIS","id":989},{"lat":"48.871213712191214","lon":"2.293692133647844","name":"16001 - AVENUE DES PORTUGAIS","address":"2 AVENUE DES PORTUGAIS - 75016 PARIS","id":990},{"lat":"48.872381","lon":"2.275283","name":"16135 - STADE WILMILLE","address":"ROND POINT DU MARECHAL DELATRE DE TASSIGNY - 75016 PARIS","id":991},{"lat":"48.8569864146289","lon":"2.282173218142987","name":"16112 - CHERNOVITZ","address":"1-3 RUE CHERNOVITZ - 75016 PARIS","id":992},{"lat":"48.845182081538034","lon":"2.26211277356597","name":"16037 - MOLITOR - MICHEL ANGE","address":"35 RUE MOLITOR - 75016 PARIS","id":993},{"lat":"48.881161983577115","lon":"2.30951238050775","name":"17018 - MONCEAU","address":"4 RUE DE THANN - 75017 PARIS","id":994},{"lat":"48.89591411750011","lon":"2.322727367054828","name":"17007 - NAVIER","address":"FACE 57 RUE NAVIER - 75017 PARIS","id":995},{"lat":"48.89263392143244","lon":"2.317313258110739","name":"17009 - BODIN AVENUE DE CLICHY","address":"2 RUE PAUL BODIN - 75017 PARIS","id":996},{"lat":"48.88880002064895","lon":"2.296319931841717","name":"17028 - PORTE DE COURCELLE","address":"34 BOULEVARD DE REIMS - 75017 PARIS","id":997},{"lat":"48.88818698581028","lon":"2.316861143151153","name":"17016 - BROCHANT","address":"3 RUE BROCHANT - 75017 PARIS","id":998},{"lat":"48.8877723254283","lon":"2.32036786584418","name":"17110 - LEGENDRE","address":"83 RUE LEGENDRE - 75017 PARIS","id":999},{"lat":"48.867565806130166","lon":"2.225998484960623","name":"21501 - SELLIER (SURESNES)","address":"RUE DE SAINT CLOUD \/ BOULEVARD HENRI SELLIER - 92150 SURESNES","id":1000},{"lat":"48.870920487633555","lon":"2.229589352206592","name":"21503 - LEDRU ROLLIN (SURESNES)","address":"13\/15 RUE LEDRU ROLLIN - 92150 SURESNES","id":1001},{"lat":"48.821049923459526","lon":"2.29130063072414","name":"21703 - MARTINIE (VANVES)","address":"5-7 AVENUE MARCEL MARTINIE - 92170 VANVES","id":1002},{"lat":"48.82509932921558","lon":"2.292500331456548","name":"21707 - PASTEUR (VANVES)","address":"9 AVENUE PASTEUR ANGLE CARREFOUR ALBERT LEGRIS - 92170 Vanves","id":1003},{"lat":"48.87944136963256","lon":"2.278535717122779","name":"22011 - MONTROSIER (NEUILLY)","address":"7 RUE MONTROSIER - 92200 NEUILLY","id":1004},{"lat":"48.8886487735565","lon":"2.263904602692138","name":"22002 - ARGENSON (NEUILLY)","address":"44 BOULEVARD D'ARGENSON - 92200 NEUILLY","id":1005},{"lat":"48.89051191347665","lon":"2.270167225273174","name":"22001 - CHATEAU (NEUILLY)","address":"26 BOULEVARD DU CHATEAU - 92200 NEUILLY","id":1006},{"lat":"48.882951625354735","lon":"2.265135008741844","name":"22008 - DE GAULLE (NEUILLY)","address":"153 BIS AVENUE CHARLES DE GAULLE - 92200 NEUILLY SUR SEINE","id":1007},{"lat":"48.880939489446405","lon":"2.271540900630842","name":"22009 - DE GAULLE 2 (NEUILLY)","address":"101 AVENUE CHARLES DE GAULLE - 92200 NEUILLY SUR SEINE","id":1008},{"lat":"48.8936146524531","lon":"2.277618727223195","name":"23001 - COUTURIER 1 (LEVALLOIS)","address":"2 RUE PAUL VAILLANT COUTURIER - 92300 LEVALLOIS","id":1009},{"lat":"48.89319467536488","lon":"2.288914160056623","name":"23008 - REPUBLIQUE (LEVALLOIS)","address":"PLACE DE LA REPUBLIQUE - 92300 LEVALLOIS","id":1010},{"lat":"48.84923030086477","lon":"2.421429940007031","name":"31001 - LAGNY (MONTREUIL)","address":"96 RUE DE LAGNY - 93100 MONTREUIL","id":1011},{"lat":"48.85491133239913","lon":"2.418772429756711","name":"31003 - PARIS (MONTREUIL)","address":"237-241 RUE DE PARIS - 93100 MONTREUIL","id":1012},{"lat":"48.85581031101047","lon":"2.441520442445324","name":"31012 - CARNOT (MONTREUIL)","address":"35\/37 RUE CARNOT - 93100 MONTREUIL","id":1013},{"lat":"48.8645278209514","lon":"2.416170724425901","name":"31705 - CHAMPEAUX (BAGNOLET)","address":"RUE DES CHAMPEAUX (PRES DE LA GARE ROUTIERE) - 93170 BAGNOLET","id":1014},{"lat":"48.8752669984009","lon":"2.4236494905184","name":"31703 - CARNOT (BAGNOLET)","address":"177 RUE SADI CARNOT - 93170 BAGNOLET","id":1015},{"lat":"48.91519864243704","lon":"2.357500683686108","name":"32004 - BAILLY (SAINT DENIS)","address":"AVENUE DU PRESIDENT WILSON\/ RUE DE BAILLY - 93200 SAINT DENIS","id":1016},{"lat":"48.8812154273023","lon":"2.42020915533382","name":"32604 - KOCK (LES LILAS)","address":"FACE 3 AVENUE PAUL DE KOCK - 93260 LES LILAS","id":1017},{"lat":"48.883620233843736","lon":"2.403240318366616","name":"33104 - JOINEAU (PRE SAINT GERVAIS)","address":"RUE ANDRE JOINEAU \/ PLACE ANATOLE FRANCE - 93310 LE PRE SAINT GERVAIS","id":1018},{"lat":"48.91157045930829","lon":"2.333910127129224","name":"34010 - DIDEROT 2 (SAINT OUEN)","address":"FACE 61-63 RUE DIDEROT- 93400 SAINT OUEN","id":1019},{"lat":"48.902691617981425","lon":"2.393255829334146","name":"35003 - VAILLANT (PANTIN)","address":"ANGLE RUE GENERAL GOSSERAND ET AVENUE EDOUARD VAILLANT - 93500 PANTIN","id":1020},{"lat":"48.889485840195675","lon":"2.414307515111288","name":"35012 - CANDALE (PANTIN)","address":"FACE AU 12 RUE CANDALE - 93500 PANTIN","id":1021},{"lat":"48.892139409307205","lon":"2.409107737701187","name":"35009 - LOLIVE 1 (PANTIN)","address":"104 AVENUE LOLIVE - 93500 PANTIN","id":1022},{"lat":"48.845779219164555","lon":"2.42377059524055","name":"41603 - PASTEUR (SAINT MANDE)","address":"AVENUE PASTEUR\/AVENUE DE PARIS - 94160 SAINT MANDE","id":1023},{"lat":"48.81420628475591","lon":"2.384207013557983","name":"42008 - CASANOVA (IVRY)","address":"128 AVENUE DANIEL CASANOVA - 94200 IVRY","id":1024},{"lat":"48.81584739281451","lon":"2.376943795472109","name":"42016 - CURIE (IVRY)","address":"1 BIS RUE PIERRE ET MARIE CURIE - 94200 IVRY","id":1025},{"lat":"48.82032218367611","lon":"2.394981240086619","name":"42001 - JULES (IVRY)","address":"1 RUE JULES VANZUPPE - 94200 IVRY","id":1026},{"lat":"48.81492646724632","lon":"2.392001635824925","name":"42002 - GARE (IVRY)","address":"VIS-A-VIS DU 17 RUE DE LA GARE - 94200 IVRY SUR SEINE","id":1027},{"lat":"48.81466008216803","lon":"2.39826154064032","name":"42003 - INSURRECTION AOUT 1944 (IVRY)","address":"2 PLACE DE L'INSURRECTION AOUT 1944 - 94200 IVRY SUR SEINE","id":1028},{"lat":"48.823963252286866","lon":"2.399998420132992","name":"42201 - NECKER (CHARENTON)","address":"RUE NECKER\/ RUE DU PORT AUX LIONS - 94220 CHARENTON","id":1029},{"lat":"48.8266572063246","lon":"2.405876723011083","name":"42207 - PARIS 3 (CHARENTON)","address":"136 RUE DE PARIS - 94220 CHARENTON","id":1030},{"lat":"48.82214312580457","lon":"2.412602786467704","name":"42205 - PARIS 1 (CHARENTON)","address":"89 RUE DE PARIS - 94220 CHARENTON","id":1031},{"lat":"48.81315667771776","lon":"2.332054794950423","name":"42503 - LENINE (GENTILLY)","address":"FACE 71 AVENUE LENINE - 94250 GENTILLY","id":1032},{"lat":"48.81018525895405","lon":"2.343789204183994","name":"42501 - RASPAIL 1 (GENTILLY)","address":"80 AVENUE RASPAIL - 94250 GENTILLY","id":1033},{"lat":"48.813127647916225","lon":"2.346794374352219","name":"42502 - RASPAIL 2 (GENTILLY)","address":"FACE AU 79 AVENUE RASPAIL- 94250 GENTILLY","id":1034},{"lat":"48.81201281428704","lon":"2.35697189328747","name":"42704 - ROSSEL (LE KREMLIN BICETRE)","address":"RUE ROSSEL \/ AVENUE DE LA CONVENTION - 94270 LE KREMLIN BICETRE","id":1035},{"lat":"48.841486856300165","lon":"2.430793451133684","name":"43006 - MINIMES (VINCENNES)","address":"30 AVENUE DES MINIMES - 94300 VINCENNES","id":1036},{"lat":"48.84423193255657","lon":"2.439209537709179","name":"12123 - CHATEAU DE VINCENNES","address":"COURS DES MARECHAUX - 94300 VINCENNES","id":1037},{"lat":"48.845719900926","lon":"2.427406302761393","name":"43003 - PARIS 2 (VINCENNES)","address":"104 AVENUE DE PARIS - 94300 VINCENNES","id":1038},{"lat":"48.852919679957296","lon":"2.410522909779111","name":"20044 - DAVOUT VOLGA","address":"63 BOULEVARD DAVOUT \/ ANGLE 84 RUE VOLGA 75020 PARIS","id":1039},{"lat":"48.9057350760539","lon":"2.33149745979217","name":"34008 - GARIBALDI (SAINT OUEN)","address":"FACE AU 4 AVENUE GARIBALDI \/ AVENUE GABRIEL PERI - 93400 SAINT OUEN","id":1040},{"lat":"48.902553278222726","lon":"2.348274936304947","name":"34005 - LESENNE (SAINT OUEN)","address":"44 RUE ADRIEN LESENNE - 93400 SAINT OUEN","id":1041},{"lat":"48.901327032601834","lon":"2.335301237471689","name":"34003 - CURIE (SAINT OUEN)","address":"2 RUE NEUVE PIERRE CURIE - 93401 SAINT OUEN","id":1042},{"lat":"48.89048461623744","lon":"2.406498213832891","name":"35011 - D'ORVES (PANTIN)","address":"12 RUE HONORE D'ESTIENNE D'ORVES - 93500 PANTIN","id":1043},{"lat":"48.806380010297374","lon":"2.336710402545291","name":"41101 - DOUMER (ARCUEIL)","address":"FACE AU 11 AVENUE PAUL DOUMER - 94110 ARCUEIL","id":1044},{"lat":"48.84630286069407","lon":"2.472408774870391","name":"41201 - DE RICARD (FONTENAY-SOUS-BOIS)","address":"RUE LOUIS-XAVIER DE RICARD - 94120 FONTENAY-SOUS-BOIS","id":1045},{"lat":"48.8390304317692","lon":"2.417410435403506","name":"41601 - GENERAL DE GAULLE (SAINT MANDE)","address":"86 AVENUE DU GENERAL DE GAULLE - 94160 SAINT MANDE","id":1046},{"lat":"48.818002269823786","lon":"2.372432376034225","name":"42015 - PAUL BERT (IVRY)","address":"EN VIS A VIS DU 7 RUE PAUL BERT - 94200 IVRY","id":1047},{"lat":"48.82211534378805","lon":"2.392850382414293","name":"42011 - BOYER (IVRY)","address":"26 QUAI MARCEL BOYER - 94200 IVRY","id":1048},{"lat":"48.81591109646686","lon":"2.368229729243504","name":"42013 - BARBES (IVRY)","address":"RUE BARBES \/ AVENUE DE VERDUN - 94200 IVRY SUR SEINE","id":1049},{"lat":"48.823784089670774","lon":"2.410013540400843","name":"42206 - PARIS 2 (CHARENTON)","address":"111 RUE DE PARIS - 94220 CHARENTON","id":1050},{"lat":"48.8294214716652","lon":"2.40164810555835","name":"42208 - PARIS 4 (CHARENTON)","address":"178 RUE DE PARIS - 94220 CHARENTON","id":1051},{"lat":"48.8123678293798","lon":"2.36180984825322","name":"42707 - OKABE (LE KREMLIN-BICETRE)","address":"51 avenue de Fontainebleau - 94270 Le Kremlin-Bicetre","id":1052},{"lat":"48.822175804937544","lon":"2.421504476062366","name":"44102 - VERDUN (SAINT MAURICE)","address":"14 avenue de Verdun - 94410 SAINT MAURICE","id":1053},{"lat":"48.853246898211985","lon":"2.405871044529538","name":"20008 - MARAICHERS","address":"73 RUE DES PYRENEES - 75020 PARIS","id":1054},{"lat":"48.85386896766491","lon":"2.402426162238911","name":"20116 - HAIES REUNION","address":"53 RUE DES HAIES - 75020 PARIS","id":1055},{"lat":"48.868940642855314","lon":"2.381282601102786","name":"20039 - COURONNES","address":"44 BOULEVARD DE BELLEVILLE - 75020 PARIS","id":1056},{"lat":"48.87809927643587","lon":"2.411046298532085","name":"20029 - PORTE DES LILAS","address":"57 RUE DES FRERES FLAVIEN - 75020 PARIS","id":1057},{"lat":"48.851285276158144","lon":"2.412733641628248","name":"20107 - STADE MARYSE HILSZ","address":"26 RUE MARYSE HILSZ - 75020 PARIS","id":1058},{"lat":"48.871265918355746","lon":"2.403950752208758","name":"20037 - SAINT FARGEAU","address":"177 AVENUE GAMBETTA - 75020 PARIS","id":1059},{"lat":"48.833174958910085","lon":"2.257005867300889","name":"21021 - PARADIS (BOULOGNE-BILLANCOURT)","address":"FACE AU 128 RUE DES ENFANTS DU PARADIS - 92100 BOULOGNE BILLANCOURT","id":1060},{"lat":"48.84829980953699","lon":"2.237570110207174","name":"21001 - TRANSVAL (BOULOGNE-BILLANCOURT)","address":"11 RUE DU TRANSVAL - 92100 BOULOGNE-BILLANCOURT","id":1061},{"lat":"48.83792331477095","lon":"2.246064151544099","name":"21008 - HUGO (BOULOGNE-BILLANCOURT)","address":"74 AVENUE VICTOR HUGO - 92100 BOULOGNE-BILLANCOURT","id":1062},{"lat":"48.84159702890181","lon":"2.233496775544275","name":"21006 - PARIS (BOULOGNE-BILLANCOURT)","address":"162 RUE DE PARIS - 92100 BOULOGNE-BILLANCOURT","id":1063},{"lat":"48.828753141436465","lon":"2.245911467014621","name":"21016 - POINT DU JOUR (BOULOGNE-BILLANCOURT)","address":"118 RUE DU POINT DU JOUR - 92100 BOULOGNE BILLANCOURT","id":1064},{"lat":"48.90249245151852","lon":"2.297840007374352","name":"21101 - VALITON (CLICHY)","address":"4 RUE DE VALITON - 92110 CLICHY","id":1065},{"lat":"48.90811038299345","lon":"2.307519710082483","name":"21111 - LERICHE (CLICHY)","address":"14 RUE DU PROFESSEUR RENE LERICHE - 92110 CLICHY","id":1066},{"lat":"48.91042912572328","lon":"2.311768175774796","name":"21112 - DEBUSSY (CLICHY)","address":"31\/35 AVENUE CLAUDE DEBUSSY - 92110 CLICHY","id":1067},{"lat":"48.811749821310805","lon":"2.303169887627808","name":"21211 - MARNE (MONTROUGE)","address":"100 AVENUE DE LA MARNE - 92120 MONTROUGE","id":1068},{"lat":"48.811101837772526","lon":"2.314629747784999","name":"21209 - GEORGES MESSIER (MONTROUGE)","address":"35 RUE MOLIERE - 92120 MONTROUGE","id":1069},{"lat":"48.817817093901425","lon":"2.324031278297223","name":"21210 - PERI 2 (MONTROUGE)","address":"8 RUE GABRIEL PERI - 92120 MONTROUGE","id":1070},{"lat":"48.82129237695624","lon":"2.273313693518059","name":"21308 - LASSERRE (ISSY LES MOULINEAUX)","address":"FACE AU 27 RUE LASSERRE - 92130 ISSY LES MOULINEAUX","id":1071},{"lat":"48.87100304154044","lon":"2.227477476770916","name":"21502 - VERDUN (SURESNES)","address":"18 BIS RUE DE VERDUN \/ COUR MADELAINE - 92150 SURESNES","id":1072},{"lat":"48.81893986428991","lon":"2.291959872467908","name":"21702 - BASCH (VANVES)","address":"6 AVENUE VICTOR BASCH - 92170 VANVES","id":1073},{"lat":"48.875360283908314","lon":"2.255699331629116","name":"22007 - CHARCOT (NEUILLY)","address":"35-37 BOULEVARD DU COMMANDANT CHARCOT - 92200 NEUILLY SUR SEINE","id":1074},{"lat":"48.82146007977343","lon":"2.302899459965933","name":"22402 - JAURES (MALAKOFF)","address":"10 AVENUE JEAN JAURES - 92240 MALAKOFF","id":1075},{"lat":"48.81467965888627","lon":"2.287400457411747","name":"22407 - BARBUSSE (MALAKOFF)","address":"ROND POINT HENRI BARBUSSE - 92240 MALAKOFF","id":1076},{"lat":"48.8983498515127","lon":"2.27917948878684","name":"23002 - FRANCE (LEVALLOIS)","address":"157 ANATOLE FRANCE - 92300 LEVALLOIS","id":1077},{"lat":"48.888762777712394","lon":"2.288136014379512","name":"23009 - FRANCE (LEVALLOIS)","address":"18 RUE ANATOLE FRANCE - 92300 LEVALLOIS-PERRET","id":1078},{"lat":"48.878706853467605","lon":"2.241975493693907","name":"28001 - WALLACE (PUTEAUX)","address":"FACE AU 4 BOULEVARD RICHARD WALLACE - 92800 PUTEAUX","id":1079},{"lat":"48.857702134021","lon":"2.43736866129498","name":"31008 - VINCENNES (MONTREUIL)","address":"7 BIS RUE DE VINCENNES - 93100 MONTREUIL","id":1080},{"lat":"48.85550131286469","lon":"2.422055733613231","name":"31004 - PARIS 2 (MONTREUIL)","address":"175\/179 RUE DE PARIS - 93100 MONTREUIL","id":1081},{"lat":"48.8688123638694","lon":"2.43297479522392","name":"31009 - DE GAULLE (MONTREUIL)","address":"13\/15 PLACE DU GENERAL DE GAULLE - 93100 MONTREUIL","id":1082},{"lat":"48.85375961633593","lon":"2.424445808011069","name":"31006 - REPUBLIQUE 2 (MONTREUIL)","address":"2\/4 PLACE DE LA REPUBLIQUE - 93100 MONTREUIL","id":1083},{"lat":"48.873929200033544","lon":"2.427933579778934","name":"31704 - HORNET (BAGNOLET)","address":"FACE AU 1 RUE JEANNE HORNET - 93170 BAGNOLET","id":1084},{"lat":"48.874457717241434","lon":"2.415138092250742","name":"31708 - NOISY (BAGNOLET)","address":"116-118 RUE DE NOISY LE SEC - 93170 BAGNOLET","id":1085},{"lat":"48.90933002188958","lon":"2.358050565736408","name":"32003 - METALLURGIE (SAINT DENIS)","address":"AVENUE DU PRESIDENT WILSON \/ RUE DE LA METALLURGIE - 93200 SAINT DENIS","id":1086},{"lat":"48.906469373243816","lon":"2.358442053954938","name":"32001 - PROUDHON (SAINT DENIS)","address":"AVENUE PRESIDENT WILSON \/ RUE PROUDHON - 93200 SAINT DENIS","id":1087},{"lat":"48.908586716952485","lon":"2.358482457792231","name":"32006 - EGLISE SAINT JUSTE (SAINT DENIS)","address":"AVENUE DU PRESIDENT WILSON \/ PARKING DE L'EGLISE SAINT JUSTE - 93210 SAINT DENIS","id":1088},{"lat":"48.8794000532367","lon":"2.41616066183218","name":"32602 - POULMARCH (LES LILAS)","address":"7 RUE JEAN POULMARCH - 93260 LES LILAS","id":1089},{"lat":"48.883240251645354","lon":"2.418912369645038","name":"32606 - GARDE CHASSE (LES LILAS)","address":"49 RUE DU GARDE CHASSE - 93260 LES LILAS","id":1090},{"lat":"48.878590348828126","lon":"2.411899977886774","name":"32601 - PARIS (LES LILAS)","address":"46 RUE DE PARIS - 93260 LES LILAS","id":1091},{"lat":"48.903964024558526","lon":"2.383125490914395","name":"33003 - FAURE (AUBERVILLIERS)","address":"ANGLE RUE BORDIER ET BOULEVARD FELIX FAURE  - 93300 AUBERVILLIERS","id":1092},{"lat":"48.90249976045801","lon":"2.342248144661283","name":"34004 - VOLTAIRE (SAINT OUEN)","address":"1 RUE VOLTAIRE - 93400 SAINT OUEN","id":1093},{"lat":"48.914188312399006","lon":"2.332082835871755","name":"34011 - DHALENNE (SAINT OUEN)","address":"FACE AU 61 RUE ALBERT DHALENNE - 93401 SAINT OUEN","id":1094},{"lat":"48.91013709505388","lon":"2.399325633305226","name":"35001 - JAURES 1 (PANTIN)","address":"168 AVENUE JEAN JAURES - 93500 PANTIN","id":1095},{"lat":"48.89571394982448","lon":"2.400571894427273","name":"35005 - GENERAL LECLERC (PANTIN)","address":"QUAI DE L'AISNE\/AVENUE DU GENERAL LECLERC 93500 PANTIN","id":1096},{"lat":"48.836125842982426","lon":"2.470375451268832","name":"41301 - CLEMANCEAU (NOGENT)","address":"2 AVENUE GEORGES CLEMENCEAU - 94130 NOGENT","id":1097},{"lat":"48.83648112918176","lon":"2.479464268709081","name":"41302 - CHARLES DE GAULLE (NOGENT)","address":"FACE AU 60 AVENUE CHARLES DE GAULLES - 94130 NOGENT SUR MARNE","id":1098},{"lat":"48.816929720561234","lon":"2.381460319184223","name":"42006 - BROSSOLETTE (IVRY)","address":"23 RUE PIERRE BROSSOLETTE - 94200 IVRY","id":1099},{"lat":"48.807259280597854","lon":"2.375130199053175","name":"42009 - VERDUN (IVRY)","address":"157-165 AVENUE DE VERDUN - 94200 IVRY","id":1100},{"lat":"48.81414053750237","lon":"2.390909368067142","name":"42014 - CACHIN (IVRY)","address":"PLACE MARCEL CACHIN - 94200 IVRY SUR SEINE","id":1101},{"lat":"48.847550436310826","lon":"2.433432607923368","name":"43005 - AUBERT (VINCENNES)","address":"18 AVENUE AUBERT - 94300 VINCENNES","id":1102},{"lat":"48.84633805388875","lon":"2.420247340474637","name":"43001 - PARIS 1 (VINCENNES)","address":"168 AVENUE DE PARIS - 94300 VINCENNES","id":1103},{"lat":"48.84779066448261","lon":"2.444690887827985","name":"43008 - FONTENAY (VINCENNES)","address":"12 RUE DE FONTENAY - 94300 VINCENNES","id":1104},{"lat":"48.849744956976856","lon":"2.451960306308826","name":"43010 - JARRY (VINCENNES)","address":"139 RUE DE LA JARRY - 94300 VINCENNES","id":1105},{"lat":"48.819954101228014","lon":"2.464025504702534","name":"43401 - GARE RER (JOINVILLE)","address":"PARC DU STATIONNEMENT \/ GARE RER - 94340 JOINVILLE-LE-PONT","id":1106},{"lat":"48.873760472140056","lon":"2.315876308346374","name":"08025 - MIROMESNIL","address":"39 RUE DE MIROMESNIL - 75008 PARIS","id":1107},{"lat":"48.874810390028195","lon":"2.308314064189137","name":"08034 - HAUSSMANN COURCELLES","address":"49 RUE DE BERRI - 75008 PARIS","id":1108},{"lat":"48.87355533448877","lon":"2.303288666125152","name":"08102 - LAMENAIS WASHINGTON","address":"1 RUE LAMENNAIS - 75008 PARIS","id":1109},{"lat":"48.873794318379595","lon":"2.306299550271081","name":"08103 - D'ARTOIS BERRY","address":"31 RUE D'ARTOIS - 75008 PARIS","id":1110},{"lat":"48.870437805350605","lon":"2.300830261423519","name":"08049 - DUNANT","address":"42 AVENUE GEORGE V - 75008 PARIS","id":1111},{"lat":"48.8740144756374","lon":"2.29991625786582","name":"08104 - FRIEDLAND CHATEAUBRIAND","address":"27\/31 RUE DE CHATEAUBRIAND - 75008 PARIS","id":1112},{"lat":"48.876201162155006","lon":"2.319793923972548","name":"08018 - SAINT AUGUSTIN","address":"18 PLACE HENRI BERGSON - 75008 PARIS","id":1113},{"lat":"48.882148945433045","lon":"2.319858692092916","name":"08051 - CHAPTAL","address":"45 BD BATIGNOLLES - 75008 PARIS","id":1114},{"lat":"48.87995716383757","lon":"2.321359676280949","name":"08019 - EUROPE","address":"03 RUE DE NAPLES - 75008 PARIS","id":1115},{"lat":"48.878034461503965","lon":"2.326483540969424","name":"08101 - LONDRES AMSTERDAM","address":"42 RUE DE LONDRES - 75008 PARIS","id":1116},{"lat":"48.87836138361425","lon":"2.305254448220567","name":"08044 - VAN DYCK","address":"2 RUE ALFRED DE VIGNY - 75008 PARIS","id":1117},{"lat":"48.877872278317966","lon":"2.337446804203667","name":"09021 - SAINT GEORGES","address":"56 RUE SAINT GEORGES - 75009 PARIS","id":1118},{"lat":"48.878113787876","lon":"2.32956021945824","name":"09036 - ATHENES CLICHY","address":"4 RUE D'ATHENES - 75009 PARIS","id":1119},{"lat":"48.87518586417745","lon":"2.332036313368639","name":"09030 - VICTOIR CHAUSSEE D ANTIN","address":"79 RUE DE LA VICTOIRE - 75009 PARIS","id":1120},{"lat":"48.87219025140095","lon":"2.329423494000903","name":"09106 - AUBER","address":"3 RUE BOUDREAU - 75009 PARIS","id":1121},{"lat":"48.87775323400056","lon":"2.327339290714228","name":"09035 - PLACE DE BUDAPEST","address":"38 RUE DE LONDRES - 75009 PARIS","id":1122},{"lat":"48.88235325984544","lon":"2.333263372748175","name":"09027 - FONTAINE DOUAI","address":"24 RUE DE DOUAI - 75009 PARIS","id":1123},{"lat":"48.87154221364212","lon":"2.345836455597928","name":"09012 - ROUGEMONT","address":"3-5 RUE ROUGEMONT - 75009 PARIS","id":1124},{"lat":"48.876383969379","lon":"2.335356677933531","name":"09025 - TAITBOUT CH\u00c2TEAUDUN","address":"77 RUE TAITBOUT - 75009 PARIS","id":1125},{"lat":"48.88126642422664","lon":"2.328197093450571","name":"09037 - CLICHY PARME","address":"01 RUE DE PARME - 75009 PARIS","id":1126},{"lat":"48.873781940593325","lon":"2.344513876337893","name":"09011 - FOLIES BERGERES","address":"14 RUE GEOFFROY MARIE - 75009 PARIS","id":1127},{"lat":"48.87285913900304","lon":"2.370071706985146","name":"10032 - DODU","address":"N\u00b0 12-14 RUE CLAUDE VELLEFAUX- 75010 PARIS","id":1128},{"lat":"48.877356057652264","lon":"2.354511445637388","name":"10021 - MARCHE ST QUENTIN","address":"4 RUE DES PETITS HOTELS - 75010 PARIS","id":1129},{"lat":"48.88384931844148","lon":"2.360053088985318","name":"10034 - CHAPELLE LOUIS BLANC","address":"68 RUE LOUIS BLANC - 75010 PARIS","id":1130},{"lat":"48.87137987425661","lon":"2.369896383666685","name":"10113 - PARMENTIER LOUVEL-TESSIER","address":"151 AVENUE PARMENTIER - 75010 PARIS","id":1131},{"lat":"48.87957771852628","lon":"2.354463131150579","name":"10153 - GARE DU NORD 3","address":"7 BOULEVARD DE DENAIN - 75010 PARIS","id":1132},{"lat":"48.881949743161194","lon":"2.352339506562677","name":"10107 - MAGENTA PARE","address":"9 RUE AMBROISE PARE - 75010 PARIS","id":1133},{"lat":"48.875384905581136","lon":"2.356094018642288","name":"10018 - ALBAN SATRAGNE","address":"110-112 RUE FAUBOURG SAINT DENIS - 75010 PARIS","id":1134},{"lat":"48.87710035109807","lon":"2.351222168052346","name":"10020 - CHABROL","address":"59 RUE CHABROL - 75010 PARIS","id":1135},{"lat":"48.8666176586814","lon":"2.38301344041578","name":"11029 - MENILMONTANT OBERKAMPF","address":"137 BOULEVARD MENILMONTANT - 75011 PARIS","id":1136},{"lat":"48.86793796309799","lon":"2.377885515684799","name":"11032 - METALLOS","address":"81 BIS RUE JP TIMBAUD - 75011 PARIS","id":1137},{"lat":"48.85631717803066","lon":"2.383072452374457","name":"11020 - CHARONNE","address":"1 RUE DE BELFORT - 75011 PARIS","id":1138},{"lat":"48.852255290042486","lon":"2.374027235613735","name":"11004 - CHARONNE SAINT ANTOINE","address":"3 RUE DE CHARONNE - 75011 PARIS","id":1139},{"lat":"48.861205051934334","lon":"2.367352328799597","name":"11045 - SAINT SEBASTIEN FROISSARD","address":"12 BD DES FILLES DU CALVAIRE - 75011 PARIS","id":1140},{"lat":"48.84925926211519","lon":"2.391754614194301","name":"11010 - ST ANTOINE GONNET","address":"1 RUE DES BOULETS - 75011 PARIS","id":1141},{"lat":"48.85704145047844","lon":"2.37289470306807","name":"11025 - FROMENT BREGUET","address":"9 RUE FROMENT - 75011 PARIS","id":1142},{"lat":"48.848482816609724","lon":"2.39721188193514","name":"11014 - NATION TRONE","address":"FACE 21 PLACE DE LA NATION - 75011 PARIS","id":1143},{"lat":"48.85328931895065","lon":"2.383041177204182","name":"11007 - FAIDHERBE PALAIS DE LA FEMME","address":"17 RUE JEAN MACE - 75011 PARIS","id":1144},{"lat":"48.855943779580954","lon":"2.392532526632664","name":"11104 - CHARONNE DU BUREAU","address":"170 RUE DE CHARONNE - 75011 PARIS","id":1145},{"lat":"48.86119441933017","lon":"2.381301904923526","name":"11026 - CHEMIN VERT SAINT MAUR","address":"105 RUE DU CHEMIN VERT - 75011 PARIS","id":1146},{"lat":"48.86180485207153","lon":"2.372651428265507","name":"11011 - RICHARD LENOIR","address":"FACE 86 BOULEVARD RICHARD LENOIR - 75011 PARIS","id":1147},{"lat":"48.864541626812056","lon":"2.375195196724585","name":"11105 - REPUBLIQUE PARMENTIER","address":"82 AVENUE PARMENTIER - 75011 PARIS","id":1148},{"lat":"48.86787670551736","lon":"2.372705978671471","name":"11034 - PARMENTIER FONTAINE AU ROI","address":"124 AVENUE PARMENTIER - 75011 PARIS","id":1149},{"lat":"48.8600393112308","lon":"2.370984374239959","name":"11103 - RICHARD LENOIR","address":"21 RUE PELEE - 75011 PARIS","id":1150},{"lat":"48.8592429763213","lon":"2.386593289210004","name":"11110 - SQUARE ROQUETTE","address":"176 RUE DE LA ROQUETTE - 75011 PARIS","id":1151},{"lat":"48.85882890841428","lon":"2.378871327120361","name":"11024 - BOULEVARD VOLTAIRE","address":"82 RUE SEDAINE - 75011 PARIS","id":1152},{"lat":"48.835138050689515","lon":"2.385478486564838","name":"12031 - LAME","address":"49 RUE GABRIEL LAME - 75012 PARIS","id":1153},{"lat":"48.8455150897939","lon":"2.3726498446286","name":"12151 - GARE DE LYON","address":"GARE DE LYON - 75012 PARIS","id":1154},{"lat":"48.84419240789483","lon":"2.371691677977748","name":"12006 - GARE DE LYON VAN GOGH","address":"15 RUE VAN GOGH - 75012 PARIS","id":1155},{"lat":"48.84463462629767","lon":"2.405099826323643","name":"12017 - ST MANDE NETTER","address":"82 AVENUE SAINT MANDE - 75012 PARIS","id":1156},{"lat":"48.839988788911874","lon":"2.400525668552064","name":"12038 - BEL AIR","address":"FACE 12 BOULEVARD PICPUS - 75012 PARIS","id":1157},{"lat":"48.844373193657","lon":"2.41097245166824","name":"12021 - COURTELINE","address":"1 - 3  et 5 avenue Courteline (angle boulevard Soult) - 75012 PARIS","id":1158},{"lat":"48.83772145898209","lon":"2.382217337050408","name":"12026 - PARC DE BERCY","address":"61 RUE DE BERCY - 75012 PARIS","id":1159},{"lat":"48.83350833245743","lon":"2.386133168700345","name":"12033 - SAINT EMILION","address":"FACE 28 RUE FRANCOIS TRUFFAUT - 75012 PARIS","id":1160},{"lat":"48.82772523704757","lon":"2.41827234236864","name":"12120 - CONSERVATION","address":"ROUTE DE LA CEINTURE DU LAC DAUMESNIL - 75012 PARIS","id":1161},{"lat":"48.849215862624035","lon":"2.370503423869599","name":"12002 - LACUEE","address":"17 RUE LACUEE - 75012 PARIS","id":1162},{"lat":"48.84030274499962","lon":"2.394630398715453","name":"12036 - REUILLY","address":"116 RUE DE REUILLY - 75012 PARIS","id":1163},{"lat":"48.845886946386784","lon":"2.366896793773722","name":"12003 - QUAI DE LA RAPEE","address":"FACE 98 QUAI DE LA RAPEE - 75012 PARIS","id":1164},{"lat":"48.83370863507971","lon":"2.388556666222385","name":"12110 - BARON LE ROY TRUFFAUT","address":"57-61 RUE DES PIROGUES DE BERCY - 75012 PARIS","id":1165},{"lat":"48.834705859741675","lon":"2.397111552649508","name":"12035 - MADAGASCAR","address":"4 RUE DE MADAGASCAR - 75012 PARIS","id":1166},{"lat":"48.840762277598394","lon":"2.41052344083499","name":"12023 - SAHEL","address":"15 AVENUE EMILE LAURENT - 75012 PARIS","id":1167},{"lat":"48.84698906998311","lon":"2.410145496563922","name":"12020 - COURS DE VINCENNES - BD SOULT","address":"FACE 118 COURS DE VINCENNES - 75012 PARIS","id":1168},{"lat":"48.833821772922654","lon":"2.394692664106047","name":"12112 - CHARENTON JARDINIER","address":"311-313 RUE DE CHARENTON - 75012 PARIS","id":1169},{"lat":"48.851311187409664","lon":"2.369250483580839","name":"12001 - BASTILLE","address":"48 BOULEVARD DE LA BASTILLE - 75012 PARIS","id":1170},{"lat":"48.84568897556758","lon":"2.374203690051493","name":"12007 - GARE DE LYON CHALON","address":"FACE 54 RUE DE CHALON - 75012 PARIS","id":1171},{"lat":"48.83481262982544","lon":"2.400927788127704","name":"12039 - DECAEN","address":"45 AVENUE DU GENERAL MICHEL BIZOT - 75012 PARIS","id":1172},{"lat":"48.819941965677195","lon":"2.36507858638901","name":"13040 - PORTE DE CHOISY","address":"111 BOULEVARD MASSENA - 75013 PARIS","id":1173},{"lat":"48.83484845292942","lon":"2.366826499627087","name":"13018 - AURIOL CHEVALERET","address":"1 RUE BRUANT - 75013 PARIS","id":1174},{"lat":"48.820226792619714","lon":"2.372209309645734","name":"13116 - PLACE DU DOCTEUR YERSIN","address":"FACE 5 AVENUE DE LA PORTE D'IVRY - 75013 PARIS","id":1175},{"lat":"48.83548071896613","lon":"2.348572461702221","name":"13005 - ARAGO CORDELIERE - VERSION 2","address":"2 RUE DES CORDELIERES - 75013 PARIS","id":1176},{"lat":"48.82860289084512","lon":"2.353034582951421","name":"13023 - BOBILLOT VERLAINE","address":"30 RUE BOBILLOT - 75013 PARIS","id":1177},{"lat":"48.831121775069235","lon":"2.348108654777346","name":"13101 - CROULEBARBE RECULETTES","address":"67-69 RUE DE CROULEBARBE - 75013 PARIS","id":1178},{"lat":"48.818574415839485","lon":"2.353260183740912","name":"13111 - CIMETIERE DE GENTILLY","address":"RUE DE LA POTERNE DES PEUPLIERS - 75013 PARIS","id":1179},{"lat":"48.82941013459557","lon":"2.375934558013933","name":"13053 - CHEVALERET TOLBIAC","address":"56 RUE CHEVALERET - 75013 PARIS","id":1180},{"lat":"48.828156251574946","lon":"2.358513532903332","name":"13122 - PARC DE CHOISY","address":"FACE 153 AVENUE DE CHOISY - 75013 PARIS","id":1181},{"lat":"48.88023362761321","lon":"2.285380679473588","name":"17043 - PLACE GENERAL KOENIG","address":"10 RUE BELIDOR - 75017 PARIS","id":1182},{"lat":"48.879813218337546","lon":"2.287956452342442","name":"17040 - TERNES PEREIRE","address":"227 BOULEVARD PEREIRE SUR TPC - 75017 PARIS","id":1183},{"lat":"48.89953828305808","lon":"2.320133661435273","name":"17109 - BOIS LE PR\u00caTRE","address":"22 BD DE BOIS LE PRETRE - 75017 PARIS","id":1184},{"lat":"48.887849493840015","lon":"2.300034397977882","name":"17102 - ALFRED ROLL","address":"14 RUE ALFRED ROLL - 75017 PARIS","id":1185},{"lat":"48.892064086245426","lon":"2.323291341208543","name":"17006 - GUY MOCQUET DAVY","address":"34 RUE GUY MOCQUET - 75017 PARIS","id":1186},{"lat":"48.891877957087424","lon":"2.335447427689794","name":"18019 - MONTCALM","address":"2 RUE MONTCALM - 75018 PARIS","id":1187},{"lat":"48.88412710804656","lon":"2.328807098192234","name":"18044 - CLICHY","address":"132 BOULEVARD DE CLICHY - 75018 PARIS","id":1188},{"lat":"48.89454171584971","lon":"2.352295466779576","name":"18037 - AMIRAUX","address":"48 RUE BOINOD - 75018 PARIS","id":1189},{"lat":"48.891083040295555","lon":"2.326735694839291","name":"18047 - ST OUEN LAMARCK","address":"53 AVENUE DE SAINT OUEN - 75018 PARIS","id":1190},{"lat":"48.89669238777841","lon":"2.338023450388167","name":"18033 - MOSKOWA","address":"111 RUE BELLIARD - 75018 PARIS","id":1191},{"lat":"48.88832421845225","lon":"2.353573372638597","name":"18014 - DOUDEAUVILLE LEON","address":"26 RUE LEON - 75018 PARIS","id":1192},{"lat":"48.8983850226507","lon":"2.36087734922712","name":"18048 - PORTE DE LA CHAPELLE","address":"29 BOULEVARD NEY - 75018 PARIS","id":1193},{"lat":"48.88270064422199","lon":"2.37469338894231","name":"19012 - LALLY TOLLENDAL","address":"5 RUE LALLY TOLLENDAL - 75019 PARIS","id":1194},{"lat":"48.886233417429835","lon":"2.368856390499634","name":"19109 - PLACE DU MAROC","address":"27 RUE DE TANGER - 75019 PARIS","id":1195},{"lat":"48.89654905978759","lon":"2.384649644021933","name":"19009 - CITE DES SCIENCES","address":"28BIS AVENUE CORENTIN CARIOU - 75019 PARIS","id":1196},{"lat":"48.88365921093733","lon":"2.395719508193907","name":"19105 - PORTE BRUNET","address":"FACE 1 AVENUE AMBROISE RENDU - 75019 PARIS","id":1197},{"lat":"48.8806060535742","lon":"2.3978962906105","name":"19027 - SERRURIER","address":"FACE 109 BOULEVARD SERURIER - 75019 PARIS","id":1198},{"lat":"48.89713005307456","lon":"2.396079008206681","name":"19044 - GRANDS MOULINS","address":"RUE DE LA CLOTURE \/ ANGLE RUE DU DEBARCADERE - 75019 PARIS","id":1199},{"lat":"48.8887860708258","lon":"2.39268612206715","name":"19018 - CIT\u00c9 DE LA MUSIQUE","address":"FACE 210 AVENUE JEAN JAURES - 75019 PARIS","id":1200},{"lat":"48.886335082615275","lon":"2.38246120055766","name":"19014 - LORRAINE","address":"28 RUE DE LORRAINE - 75019 PARIS","id":1201},{"lat":"48.879775248860305","lon":"2.374834351164813","name":"19039 - PAILLERON","address":"6 RUE EDOUARD PAILLERON - 75019 PARIS","id":1202},{"lat":"48.88836894202208","lon":"2.390991659376403","name":"19017 - PARC DE LA VILLETTE","address":"197 AVENUE JEAN JAURES - 75019 PARIS","id":1203},{"lat":"48.87649965412676","lon":"2.379407362599104","name":"19023 - MANIN SIMON BOLIVAR","address":"FACE 1 RUE MANIN - 75019 PARIS","id":1204},{"lat":"48.883777","lon":"2.376515","name":"19030 - MOSELLE JAURES","address":"6 PASSAGE DE MELUN - 75019 PARIS","id":1205},{"lat":"48.89909167251088","lon":"2.374033209740869","name":"19110 - MACDONALD DUCHESNE","address":"1 RUE JACQUES DUCHESNE - 75019 PARIS","id":1206},{"lat":"48.893800171035025","lon":"2.397910366434026","name":"19043 - PETITS PONTS","address":"RUE JULES LADOUMEGUE \/ ANGLE ROUTES DES PETITS PONTS \/ ANGLE AV. DU GAL. LECLERC - 75019 PARIS","id":1207},{"lat":"48.88915491757438","lon":"2.383375417280365","name":"19015 - THIONVILLE","address":"24 RUE DE THIONVILLE - 75019 PARIS","id":1208},{"lat":"48.88630005108641","lon":"2.377388863133627","name":"19117 - EURYALE DEHAYNIN","address":"22 RUE EURYALE DEHAYNIN - 75019 PARIS","id":1209},{"lat":"48.870393671603765","lon":"2.384222472712587","name":"20040 - PARC DE BELLEVILLE","address":"57 & 36 RUE JULIEN LACROIX - 75020 PARIS","id":1210},{"lat":"48.85714339209092","lon":"2.394872401627679","name":"20015 - BAGNOLET-ORTEAUX","address":"44 BIS RUE DE BAGNOLET - 75020 PARIS","id":1211},{"lat":"48.87013645868239","lon":"2.396690612876254","name":"20119 - SQUARE DE MENILMONTANT","address":"138 RUE DE MENILMONTANT - 75020 PARIS","id":1212},{"lat":"48.850285280635795","lon":"2.406296107816583","name":"20006 - PYR\u00c9N\u00c9ES - PLAINE","address":"33 RUE DES PYRENEES - 75020 PARIS","id":1213},{"lat":"48.86500081847653","lon":"2.403980836377493","name":"20023 - PELLEPORT BELGRAND","address":"44 RUE PELLEPORT - 75020 PARIS","id":1214},{"lat":"48.87409248091576","lon":"2.389435908330615","name":"20112 - JOURDAIN","address":"3 RUE DU JOURDAIN - 75020 PARIS","id":1215},{"lat":"48.85535513998681","lon":"2.399728589689724","name":"20013 - PLACE DE LA REUNION","address":"106 RUE ALEXANDRE DUMAS - 75020 PARIS","id":1216},{"lat":"48.864423648565946","lon":"2.410411115844628","name":"20115 - PORTE DE BAGNOLET","address":"102 RUE LOUIS LUMIERE - 75020 PARIS","id":1217},{"lat":"48.86803439043193","lon":"2.411030612453627","name":"20103 - LE VAU BERTEAUX","address":"24 RUE LE VAU - 75020 PARIS","id":1218},{"lat":"48.849266043601794","lon":"2.412330328844772","name":"20005 - RUE DE LAGNY SAINT MANDE","address":"2 RUE REYNALDO HAHN - 75020 PARIS","id":1219},{"lat":"48.848364667776785","lon":"2.399762385981272","name":"20001 - PLACE DE LA NATION","address":"1 COURS DE VINCENNES - 75020 PARIS","id":1220},{"lat":"48.867925154026736","lon":"2.400976623546542","name":"20026 - PELLEPORT","address":"121 AVENUE GAMBETTA - 75020 PARIS","id":1221},{"lat":"48.87354903513999","lon":"2.411003035880057","name":"20038 - LEON FRAPIE","address":"6 RUE LEON FRAPIE - 75020 PARIS","id":1222},{"lat":"48.86554086710007","lon":"2.387724496163364","name":"20031 - DURIS","address":"33 RUE DURIS - 75020 PARIS","id":1223},{"lat":"48.8597776444599","lon":"2.40344426132457","name":"20048 - BAGNOLET","address":"110 RUE DE BAGNOLET - 75020 PARIS","id":1224},{"lat":"48.86216198070008","lon":"2.41112578185621","name":"20104 - RUE LOUIS LUMI\u00c8RE","address":"68 RUE LOUIS LUMIERE - 75020 PARIS","id":1225},{"lat":"48.847724968984686","lon":"2.405907317017889","name":"20503 - COURS DE VINCENNES PYR\u00c9N\u00c9ES","address":"1 RUE DES PYRENEES - 75020 PARIS","id":1226},{"lat":"48.82824349415854","lon":"2.250657739639016","name":"21018 - SEINE (BOULOGNE-BILLANCOURT)","address":"FACE AU 13 RUE DE LA SEINE - 92100 BOULOGNE-BILLANCOURT","id":1227},{"lat":"48.82584693469992","lon":"2.248821391087721","name":"21013 - GRENIER (BOULOGNE-BILLANCOURT)","address":"4 AVENUE PIERRE GRENIER - 92100 BOULOGNE-BILLANCOURT","id":1228}]